[{"iata":"UTK","name":"Utirik Airport","lat":11.222219,"lng":169.851429,"country":"MH","type":"small_airport"},{"iata":"OCA","name":"Ocean Reef Club Airport","lat":25.325399,"lng":-80.274803,"country":"US","type":"medium_airport"},{"iata":"CSE","name":"Crested Butte Airpark","lat":38.851918,"lng":-106.928341,"country":"US","keywords":"Buckhorn Ranch","type":"small_airport"},{"iata":"CUS","name":"Columbus Airport","lat":31.823898,"lng":-107.629924,"country":"US","type":"small_airport"},{"iata":"JCY","name":"LBJ Ranch Airport","lat":30.251801,"lng":-98.622498,"country":"US","type":"small_airport"},{"iata":"NUP","name":"Nunapitchuk Airport","lat":60.905591,"lng":-162.440454,"country":"US","type":"small_airport"},{"iata":"ICY","name":"Icy Bay Airport","lat":59.966269,"lng":-141.660118,"country":"US","type":"small_airport"},{"iata":"KKK","name":"Kalakaket Creek AS Airport","lat":64.4166256967,"lng":-156.820392609,"country":"US","type":"small_airport"},{"iata":"MHS","name":"Dunsmuir Muni-Mott Airport","lat":41.263199,"lng":-122.272003,"country":"US","type":"small_airport"},{"iata":"NIR","name":"Chase Field Industrial Airport","lat":28.362444,"lng":-97.661917,"country":"US","keywords":"1XA2, Naval Air Station Chase Field, Beeville Municipal Airport","type":"small_airport"},{"iata":"GCT","name":"Grand Canyon Bar Ten Airstrip","lat":36.257984,"lng":-113.231063,"country":"US","keywords":"Webbs Ranch","type":"small_airport"},{"iata":"LVD","name":"Lime Village Airport","lat":61.3591003418,"lng":-155.440002441,"country":"US","keywords":"23AK","type":"small_airport"},{"iata":"HGZ","name":"Hog River Airport","lat":66.176133,"lng":-155.684816,"country":"US","type":"small_airport"},{"iata":"OTN","name":"Ed-Air Airport","lat":38.851782,"lng":-87.49987,"country":"US","keywords":"2IG4, KOTN, OTN, Emison, Green, Vincennes Executive Inn","type":"small_airport"},{"iata":"TLF","name":"Telida Airport","lat":63.393902,"lng":-153.268997,"country":"US","keywords":"AK52","type":"small_airport"},{"iata":"BZT","name":"Eagle Air Park","lat":28.982200622559,"lng":-95.579696655273,"country":"US","keywords":"Hinkles Ferry","type":"small_airport"},{"iata":"BYW","name":"Blakely Island Airport","lat":48.579162,"lng":-122.823844,"country":"US","type":"small_airport"},{"iata":"DRF","name":"Drift River Airport","lat":60.588901519800004,"lng":-152.162002563,"country":"US","type":"small_airport"},{"iata":"BDF","name":"Rinkenberger Restricted Landing Area","lat":41.230899810800004,"lng":-89.61569976810001,"country":"US","type":"small_airport"},{"iata":"TEH","name":"Tetlin Airport","lat":63.124618,"lng":-142.518005,"country":"US","type":"small_airport"},{"iata":"VRS","name":"Roy Otten Memorial Airfield","lat":38.427799224854,"lng":-92.875198364258,"country":"US","type":"small_airport"},{"iata":"ATT","name":"Atmautluak Airport","lat":60.866699,"lng":-162.272996,"country":"US","keywords":"08AK","type":"small_airport"},{"iata":"LIV","name":"Livengood Camp Airport","lat":65.467,"lng":-148.6534,"country":"US","keywords":"4AK2","type":"small_airport"},{"iata":"PDB","name":"Pedro Bay Airport","lat":59.796925,"lng":-154.129994,"country":"US","keywords":"AK04","type":"small_airport"},{"iata":"KOZ","name":"Ouzinkie Airport","lat":57.942094,"lng":-152.464314,"country":"US","type":"small_airport"},{"iata":"TNK","name":"Tununak Airport","lat":60.569638,"lng":-165.246649,"country":"US","keywords":"AK45","type":"small_airport"},{"iata":"MNT","name":"Minto Al Wright Airport","lat":65.147991,"lng":-149.368658,"country":"US","type":"small_airport"},{"iata":"WKK","name":"Aleknagik / New Airport","lat":59.2826004028,"lng":-158.617996216,"country":"US","type":"medium_airport"},{"iata":"RFK","name":"Rollang Field","lat":32.953543,"lng":-90.845144,"country":"US","type":"small_airport"},{"iata":"NNK","name":"Naknek Airport","lat":58.735633,"lng":-157.02216,"country":"US","type":"small_airport"},{"iata":"BCS","name":"Southern Seaplane Airport","lat":29.866078,"lng":-90.021608,"country":"US","type":"small_airport"},{"iata":"MMN","name":"Minute Man Air Field","lat":42.460298,"lng":-71.519031,"country":"US","type":"small_airport"},{"iata":"CWS","name":"Center Island Airport","lat":48.490046,"lng":-122.831612,"country":"US","type":"small_airport"},{"iata":"TEK","name":"Tatitlek Airport","lat":60.871449,"lng":-146.690297,"country":"US","keywords":"AK47","type":"small_airport"},{"iata":"DUF","name":"Pine Island Airport","lat":36.252744,"lng":-75.785256,"country":"US","type":"small_airport"},{"iata":"SSW","name":"Stuart Island Airpark","lat":48.673379,"lng":-123.175439,"country":"US","type":"small_airport"},{"iata":"FOB","name":"Fort Bragg Airport","lat":39.472445,"lng":-123.795319,"country":"US","type":"small_airport"},{"iata":"AXB","name":"Maxson Airfield","lat":44.312002,"lng":-75.90034,"country":"US","keywords":"89N","type":"small_airport"},{"iata":"REE","name":"Reese Airpark","lat":33.590301513672,"lng":-102.03700256348,"country":"US","type":"small_airport"},{"iata":"WDN","name":"Waldron Airstrip","lat":48.71141,"lng":-123.018208,"country":"US","keywords":"Waldronaire","type":"small_airport"},{"iata":"CHU","name":"Chuathbaluk Airport","lat":61.579102,"lng":-159.216003,"country":"US","type":"small_airport"},{"iata":"UGS","name":"Ugashik Airport","lat":57.523476,"lng":-157.396344,"country":"US","type":"small_airport"},{"iata":"KLL","name":"Levelock Airport","lat":59.12606,"lng":-156.860906,"country":"US","type":"small_airport"},{"iata":"WTL","name":"Tuntutuliak Airport","lat":60.351243,"lng":-162.654476,"country":"US","keywords":"AK61","type":"small_airport"},{"iata":"TWA","name":"Twin Hills Airport","lat":59.074713,"lng":-160.274992,"country":"US","keywords":"AK63","type":"small_airport"},{"iata":"KCQ","name":"Chignik Lake Airport","lat":56.255001,"lng":-158.774994,"country":"US","keywords":"AK79","type":"small_airport"},{"iata":"AAD","name":"Adado Airport","lat":6.095802,"lng":46.6375,"country":"SO","keywords":"Cadaado Airport","type":"small_airport"},{"iata":"ABP","name":"Atkamba Airport","lat":-6.06462,"lng":141.095173,"country":"PG","type":"small_airport"},{"iata":"ACM","name":"Arica Airport","lat":-2.143713,"lng":-71.75935,"country":"CO","type":"small_airport"},{"iata":"ADV","name":"El Daein Airport","lat":11.4023,"lng":26.1186,"country":"SD","type":"small_airport"},{"iata":"AEE","name":"Adareil Airport","lat":10.053611,"lng":32.959444,"country":"SS","type":"small_airport"},{"iata":"AEQ","name":"Ar Horqin Airport","lat":43.908407,"lng":120.15099,"country":"CN","type":"small_airport"},{"iata":"BBQ","name":"Burton-Nibbs International Airport","lat":17.621194,"lng":-61.798347,"country":"AG","keywords":"Barbuda International Airport, New Barbuda Airport","type":"medium_airport"},{"iata":"AFT","name":"Afutara Aerodrome","lat":-9.191389,"lng":160.948611,"country":"SB","type":"small_airport"},{"iata":"RNA","name":"Ulawa Airport","lat":-9.86054358262,"lng":161.979546547,"country":"SB","type":"small_airport"},{"iata":"ATD","name":"Uru Harbour Airport","lat":-8.87333,"lng":161.011002,"country":"SB","type":"small_airport"},{"iata":"VEV","name":"Barakoma Airport","lat":-7.912779808044434,"lng":156.70599365234375,"country":"SB","type":"small_airport"},{"iata":"BPF","name":"Batuna Aerodrome","lat":-8.56202777778,"lng":158.119305556,"country":"SB","type":"small_airport"},{"iata":"GEF","name":"Geva Airport","lat":-7.575829982757568,"lng":156.5970001220703,"country":"SB","type":"small_airport"},{"iata":"AGG","name":"Angoram Airport","lat":-4.057077,"lng":144.073841,"country":"PG","type":"small_airport"},{"iata":"AKS","name":"Gwaunaru'u Airport","lat":-8.70257,"lng":160.682007,"country":"SB","type":"small_airport"},{"iata":"BNY","name":"Bellona/Anua Airport","lat":-11.302222222200001,"lng":159.798333333,"country":"SB","type":"small_airport"},{"iata":"CHY","name":"Choiseul Bay Airport","lat":-6.711944,"lng":156.396111,"country":"SB","type":"small_airport"},{"iata":"BAS","name":"Ballalae Airport","lat":-6.990745,"lng":155.886656,"country":"SB","type":"small_airport"},{"iata":"FRE","name":"Fera/Maringe Airport","lat":-8.1075,"lng":159.576996,"country":"SB","keywords":"Santa Isabel Islands","type":"small_airport"},{"iata":"HIR","name":"Honiara International Airport","lat":-9.428,"lng":160.054993,"country":"SB","keywords":"Henderson Field","type":"large_airport"},{"iata":"MBU","name":"Babanakira Airport","lat":-9.7475,"lng":159.839005,"country":"SB","keywords":"Mbambanakira Airport","type":"small_airport"},{"iata":"AVU","name":"Avu Avu Airport","lat":-9.868333,"lng":160.410556,"country":"SB","type":"small_airport"},{"iata":"IRA","name":"Ngorangora Airport","lat":-10.449700355500001,"lng":161.897994995,"country":"SB","type":"small_airport"},{"iata":"SCZ","name":"Santa Cruz/Graciosa Bay/Luova Airport","lat":-10.7203,"lng":165.794998,"country":"SB","type":"small_airport"},{"iata":"MUA","name":"Munda Airport","lat":-8.32797,"lng":157.263,"country":"SB","type":"medium_airport"},{"iata":"GZO","name":"Nusatupe Airport","lat":-8.09778022766,"lng":156.863998413,"country":"SB","type":"small_airport"},{"iata":"MNY","name":"Mono Airport","lat":-7.41694,"lng":155.565002,"country":"SB","type":"small_airport"},{"iata":"PRS","name":"Parasi Airport","lat":-9.641670227050781,"lng":161.4250030517578,"country":"SB","type":"small_airport"},{"iata":"RNL","name":"Rennell/Tingoa Airport","lat":-11.55,"lng":160.062778,"country":"SB","type":"small_airport"},{"iata":"EGM","name":"Sege Airport","lat":-8.57889,"lng":157.876007,"country":"SB","type":"small_airport"},{"iata":"NNB","name":"Santa Ana Airport","lat":-10.847994,"lng":162.454108,"country":"SB","type":"small_airport"},{"iata":"RUS","name":"Marau Airport","lat":-9.86167,"lng":160.824997,"country":"SB","type":"small_airport"},{"iata":"VAO","name":"Suavanao Airport","lat":-7.58556,"lng":158.731003,"country":"SB","type":"small_airport"},{"iata":"XYA","name":"Yandina Airport","lat":-9.092816,"lng":159.21841,"country":"SB","type":"small_airport"},{"iata":"AGK","name":"Kagua Airport","lat":-6.396388888890001,"lng":143.853611111,"country":"PG","type":"small_airport"},{"iata":"KGE","name":"Kaghau Airport","lat":-7.3305,"lng":157.585,"country":"SB","keywords":"Kagau Island","type":"small_airport"},{"iata":"KUE","name":"Kukudu Airport","lat":-8.0262,"lng":156.94783,"country":"SB","keywords":"Kukundu","type":"small_airport"},{"iata":"KWS","name":"Kwailabesi Airport","lat":-8.360508,"lng":160.775127,"country":"SB","type":"small_airport"},{"iata":"LLM","name":"Lomlom Airport","lat":-10.296828,"lng":166.327322,"country":"SB","keywords":"Ngawa Island","type":"small_airport"},{"iata":"NAZ","name":"Nana Airport","lat":-10.6758,"lng":162.2049,"country":"SB","type":"small_airport"},{"iata":"MHM","name":"Manaoba Airport","lat":-8.325008,"lng":160.80051,"country":"SB","type":"small_airport"},{"iata":"GTA","name":"Gatokae Aerodrome","lat":-8.738358,"lng":158.202836,"country":"SB","type":"small_airport"},{"iata":"RIN","name":"Ringi Cove Airport","lat":-8.12639045715332,"lng":157.14300537109375,"country":"SB","type":"small_airport"},{"iata":"RBV","name":"Ramata Airport","lat":-8.168060302734375,"lng":157.64300537109375,"country":"SB","type":"small_airport"},{"iata":"AHY","name":"Ambatolhy Airport","lat":-20.015833333299998,"lng":45.535,"country":"MG","type":"small_airport"},{"iata":"AIC","name":"Ailinglaplap Airok Airport","lat":7.279422,"lng":168.8257,"country":"MH","type":"small_airport"},{"iata":"CEX","name":"Chena Hot Springs Airport","lat":65.0518035889,"lng":-146.04699707,"country":"US","type":"small_airport"},{"iata":"SOL","name":"Solomon State Field","lat":64.5605,"lng":-164.4457,"country":"US","type":"small_airport"},{"iata":"HED","name":"Herendeen Bay Airport","lat":55.802346,"lng":-160.901346,"country":"US","type":"small_airport"},{"iata":"TWE","name":"Taylor Airport","lat":65.6792984009,"lng":-164.798995972,"country":"US","type":"small_airport"},{"iata":"CDL","name":"Candle 2 Airport","lat":65.907699585,"lng":-161.925994873,"country":"US","type":"small_airport"},{"iata":"BSW","name":"Boswell Bay Airport","lat":60.4230995178,"lng":-146.145996094,"country":"US","type":"small_airport"},{"iata":"AKM","name":"Zakuoma Airport","lat":10.8902777778,"lng":19.8172222222,"country":"TD","type":"small_airport"},{"iata":"YUK","name":"Syunik Airport","lat":39.202272,"lng":46.455204,"country":"AM","keywords":"Սյունիքի օդանավակայան","type":"small_airport"},{"iata":"AME","name":"Alto Molocue Airport","lat":-15.6102777778,"lng":37.6813888889,"country":"MZ","type":"small_airport"},{"iata":"AMY","name":"Ambatomainty Airport","lat":-17.686667,"lng":45.623889,"country":"MG","type":"small_airport"},{"iata":"INU","name":"Nauru International Airport","lat":-0.547893,"lng":166.919525,"country":"NR","keywords":"Nauru, Yaren District, Naero","type":"medium_airport"},{"iata":"ANZ","name":"Angus Downs Airport","lat":-25.0325,"lng":132.2748,"country":"AU","type":"small_airport"},{"iata":"CTV","name":"Catoca Airport","lat":-9.431359,"lng":20.311557,"country":"AO","keywords":"Saurimo North","type":"small_airport"},{"iata":"ANL","name":"Andulo Airport","lat":-11.4723,"lng":16.710899,"country":"AO","type":"small_airport"},{"iata":"CNZ","name":"Cangamba Airport","lat":-13.7106,"lng":19.861099,"country":"AO","type":"small_airport"},{"iata":"DRC","name":"Dirico Airport","lat":-17.981924,"lng":20.768061,"country":"AO","type":"small_airport"},{"iata":"NDF","name":"N'dalatando Airport","lat":-9.280378,"lng":14.982432,"country":"AO","type":"small_airport"},{"iata":"AOB","name":"Annanberg Airport","lat":-4.90416666667,"lng":144.635833333,"country":"PG","type":"small_airport"},{"iata":"AOD","name":"Abou-Deïa Airport","lat":11.4773,"lng":19.2874,"country":"TD","type":"small_airport"},{"iata":"APP","name":"Asapa Airport","lat":-8.979167,"lng":148.103611,"country":"PG","type":"small_airport"},{"iata":"AQY","name":"Girdwood-Alyeska Airport","lat":60.968774,"lng":-149.119792,"country":"US","type":"small_airport"},{"iata":"QRF","name":"Bragado Airport","lat":-35.145811,"lng":-60.480294,"country":"AR","type":"small_airport"},{"iata":"CVI","name":"Caleta Olivia Airport","lat":-46.37428,"lng":-67.59409,"country":"AR","type":"small_airport"},{"iata":"CNT","name":"Charata Airport","lat":-27.2164,"lng":-61.2103,"country":"AR","type":"small_airport"},{"iata":"VGS","name":"General Villegas Airport","lat":-34.995728,"lng":-62.999725,"country":"AR","type":"small_airport"},{"iata":"LMD","name":"Los Menucos Airport","lat":-40.817699,"lng":-68.074699,"country":"AR","type":"small_airport"},{"iata":"VCF","name":"Valcheta Airport","lat":-40.700001,"lng":-66.150002,"country":"AR","type":"small_airport"},{"iata":"CPG","name":"Carmen de Patagones Airport","lat":-40.7781,"lng":-62.9803,"country":"AR","type":"small_airport"},{"iata":"ARP","name":"Aragip Airport","lat":-9.88333333333,"lng":149.483333333,"country":"PG","type":"small_airport"},{"iata":"ASZ","name":"Asirim Airport","lat":-6.009722222220001,"lng":150.368611111,"country":"PG","type":"small_airport"},{"iata":"WFR","name":"[Duplicate] Wolf's Fang Runway","lat":-71.5264,"lng":8.799459,"country":"AQ","keywords":"AT98, Wolf's Fang Runway","type":"medium_airport"},{"iata":"LYT","name":"Lady Elliot Island Airstrip","lat":-24.1129,"lng":152.7156,"country":"AU","type":"small_airport"},{"iata":"GYZ","name":"Gruyere Airport","lat":-28.034548,"lng":123.81506,"country":"AU","type":"small_airport"},{"iata":"AGW","name":"Agnew Airport","lat":-12.1456,"lng":142.149369,"country":"AU","type":"small_airport"},{"iata":"AYD","name":"Alroy Downs Airport","lat":-19.2908,"lng":136.078995,"country":"AU","type":"small_airport"},{"iata":"BYX","name":"Baniyala Airport","lat":-13.1981,"lng":136.227005,"country":"AU","type":"small_airport"},{"iata":"COB","name":"Coolibah Airport","lat":-15.548299789428711,"lng":130.96200561523438,"country":"AU","type":"small_airport"},{"iata":"CRJ","name":"Coorabie Airport","lat":-31.894399642944336,"lng":132.29600524902344,"country":"AU","type":"small_airport"},{"iata":"CRY","name":"Carlton Hill Airport","lat":-15.501899719238281,"lng":128.53399658203125,"country":"AU","type":"small_airport"},{"iata":"CSD","name":"Cresswell Downs Airport","lat":-17.947999954223633,"lng":135.91600036621094,"country":"AU","type":"small_airport"},{"iata":"DYM","name":"Diamantina Lakes Airport","lat":-23.761699676513672,"lng":141.14500427246094,"country":"AU","type":"small_airport"},{"iata":"HLV","name":"Helenvale Airport","lat":-15.685799598693848,"lng":145.21499633789062,"country":"AU","type":"small_airport"},{"iata":"KBD","name":"Kimberley Downs Airport","lat":-17.398577,"lng":124.355565,"country":"AU","type":"small_airport"},{"iata":"KGR","name":"Kulgera Airport","lat":-25.8428,"lng":133.292007,"country":"AU","type":"small_airport"},{"iata":"PEP","name":"Peppimenarti Airport","lat":-14.1442,"lng":130.091003,"country":"AU","type":"small_airport"},{"iata":"RDA","name":"Rockhampton Downs Airport","lat":-18.95330047607422,"lng":135.2010040283203,"country":"AU","type":"small_airport"},{"iata":"SSK","name":"Sturt Creek Airport","lat":-19.166400909423828,"lng":128.1739959716797,"country":"AU","type":"small_airport"},{"iata":"SWB","name":"Shaw River Airport","lat":-21.510299682617188,"lng":119.36199951171875,"country":"AU","type":"small_airport"},{"iata":"TWP","name":"Torwood Airport","lat":-17.363300323486328,"lng":143.75,"country":"AU","type":"small_airport"},{"iata":"ZVG","name":"Springvale Airport","lat":-17.7869,"lng":127.669998,"country":"AU","type":"small_airport"},{"iata":"AWR","name":"Awar Airport (unusable)","lat":-4.122278,"lng":144.853292,"country":"PG","type":"small_airport"},{"iata":"AXF","name":"Alxa Left Banner Bayanhot Airport","lat":38.748317,"lng":105.58416,"country":"CN","type":"medium_airport"},{"iata":"AXO","name":"Pantar Kabir Airport","lat":-8.244832,"lng":124.219108,"country":"ID","keywords":"Alor","type":"small_airport"},{"iata":"AMF","name":"Ama Airport","lat":-4.10111111111,"lng":141.67,"country":"PG","type":"small_airport"},{"iata":"UAE","name":"Mount Aue Airport","lat":-6.229978,"lng":144.664181,"country":"PG","type":"small_airport"},{"iata":"AFR","name":"Afore Airstrip","lat":-9.13867,"lng":148.390701,"country":"PG","type":"small_airport"},{"iata":"AUP","name":"Agaun Airport","lat":-9.927715,"lng":149.389951,"country":"PG","type":"small_airport"},{"iata":"ATP","name":"Aitape Airport","lat":-3.143611,"lng":142.346806,"country":"PG","type":"small_airport"},{"iata":"AIH","name":"Aiambak Airport","lat":-7.342777777779999,"lng":141.2675,"country":"PG","type":"small_airport"},{"iata":"AMU","name":"Amanab Airport","lat":-3.586,"lng":141.214333333,"country":"PG","type":"small_airport"},{"iata":"ADC","name":"Andakombe Airport","lat":-7.13722222222,"lng":145.744722222,"country":"PG","type":"small_airport"},{"iata":"AIE","name":"Aiome Airport","lat":-5.145699978,"lng":144.7307003,"country":"PG","type":"small_airport"},{"iata":"KPM","name":"Kompiam Airport","lat":-5.38166666667,"lng":143.924722222,"country":"PG","type":"small_airport"},{"iata":"AUJ","name":"Ambunti Airport","lat":-4.21566666667,"lng":142.823166667,"country":"PG","type":"small_airport"},{"iata":"AWB","name":"Awaba Airport","lat":-8.013414,"lng":142.752099,"country":"PG","type":"small_airport"},{"iata":"AEK","name":"Aseki Airport","lat":-7.350805,"lng":146.193994,"country":"PG","type":"small_airport"},{"iata":"AYU","name":"Aiyura Airport","lat":-6.33805555556,"lng":145.904166667,"country":"PG","keywords":"Ukarumpa, Onmuna","type":"small_airport"},{"iata":"VMU","name":"Baimuru Airport","lat":-7.496955,"lng":144.821756,"country":"PG","type":"medium_airport"},{"iata":"BCP","name":"Bambu Airport","lat":-5.863611111110001,"lng":146.4925,"country":"PG","type":"small_airport"},{"iata":"BNM","name":"Bodinumu Airport","lat":-9.107777777779999,"lng":147.666722222,"country":"PG","type":"small_airport"},{"iata":"BMZ","name":"Bamu Airport","lat":-7.8485,"lng":143.2433,"country":"PG","type":"small_airport"},{"iata":"BDZ","name":"Baindoung Airport","lat":-6.34722222222,"lng":146.942222222,"country":"PG","type":"small_airport"},{"iata":"BSP","name":"Bensbach Airport","lat":-8.85805555556,"lng":141.259444444,"country":"PG","type":"small_airport"},{"iata":"BWP","name":"Bewani Airport","lat":-3.0216666666700003,"lng":141.165277778,"country":"PG","type":"small_airport"},{"iata":"BUA","name":"Buka Airport","lat":-5.422299,"lng":154.672698,"country":"PG","type":"medium_airport"},{"iata":"BAA","name":"Bialla Airport","lat":-5.3305602073700005,"lng":151.007995605,"country":"PG","keywords":"Babu,","type":"small_airport"},{"iata":"OPU","name":"Balimo Airport","lat":-8.05000019073,"lng":142.932998657,"country":"PG","type":"medium_airport"},{"iata":"BMH","name":"Bomai Airport","lat":-6.37316666667,"lng":144.637,"country":"PG","type":"small_airport"},{"iata":"BPD","name":"Bapi Airstrip","lat":-7.743611111110001,"lng":147.020555556,"country":"PG","type":"small_airport"},{"iata":"BPK","name":"Biangabip Airport","lat":-5.526389,"lng":141.744583,"country":"PG","type":"small_airport"},{"iata":"BRP","name":"Biaru Airport","lat":-7.6693,"lng":146.7594,"country":"PG","type":"small_airport"},{"iata":"BUL","name":"Bulolo Airport","lat":-7.216286671410001,"lng":146.649541855,"country":"PG","type":"small_airport"},{"iata":"XBN","name":"Biniguni Airport","lat":-9.6425,"lng":149.303889,"country":"PG","type":"small_airport"},{"iata":"CVB","name":"Chungribu Airport","lat":-4.80662,"lng":144.714996,"country":"PG","type":"small_airport"},{"iata":"CGC","name":"Cape Gloucester Airport","lat":-5.455231,"lng":148.422289,"country":"PG","type":"small_airport"},{"iata":"CMU","name":"Chimbu Airport","lat":-6.024290084838867,"lng":144.9709930419922,"country":"PG","type":"medium_airport"},{"iata":"SQT","name":"China Strait Airstrip","lat":-10.5627777778,"lng":150.690694444,"country":"PG","type":"small_airport"},{"iata":"DBP","name":"Debepare Airport","lat":-6.30861111111,"lng":141.905555556,"country":"PG","keywords":"Debepari","type":"small_airport"},{"iata":"DER","name":"Derim Airport","lat":-6.14472222222,"lng":147.107222222,"country":"PG","type":"small_airport"},{"iata":"BNT","name":"Bundi Airport","lat":-5.742222222220001,"lng":145.2275,"country":"PG","type":"small_airport"},{"iata":"MDM","name":"Munduku Airport","lat":-4.6204,"lng":143.4516,"country":"PG","type":"small_airport"},{"iata":"KPF","name":"Kondobol Airport","lat":-8.5336,"lng":142.5049,"country":"PG","keywords":"Kondubol, Kondobal","type":"small_airport"},{"iata":"DNU","name":"Dinangat Airport","lat":-6.1546,"lng":146.6772,"country":"PG","keywords":"Diningat","type":"small_airport"},{"iata":"DOI","name":"Doini Airport","lat":-10.7009,"lng":150.7218,"country":"PG","type":"small_airport"},{"iata":"DOO","name":"Dorobisoro Airport","lat":-9.461855,"lng":147.920907,"country":"PG","type":"small_airport"},{"iata":"DAU","name":"Daru Airport","lat":-9.08676,"lng":143.207993,"country":"PG","type":"medium_airport"},{"iata":"KRU","name":"Kerau Airport","lat":-8.271612,"lng":147.071899,"country":"PG","type":"small_airport"},{"iata":"EMS","name":"Embessa Airport","lat":-9.447,"lng":148.7628,"country":"PG","type":"small_airport"},{"iata":"XYR","name":"Edwaki Airport","lat":-3.883986,"lng":141.792234,"country":"PG","type":"small_airport"},{"iata":"EMI","name":"Emirau Airport","lat":-1.653949991,"lng":149.9757667,"country":"PG","type":"small_airport"},{"iata":"EFG","name":"Efogi Airport","lat":-9.15380555556,"lng":147.659805556,"country":"PG","type":"small_airport"},{"iata":"MHY","name":"Morehead Airport","lat":-8.71411111111,"lng":141.644444444,"country":"PG","type":"small_airport"},{"iata":"EPT","name":"Eliptamin Airport","lat":-5.0412,"lng":141.6779,"country":"PG","type":"small_airport"},{"iata":"EGA","name":"Engati Airstrip","lat":-6.9179,"lng":146.1053,"country":"PG","type":"small_airport"},{"iata":"EMO","name":"Emo River Airstrip","lat":-9.1234,"lng":148.0415,"country":"PG","type":"small_airport"},{"iata":"ERU","name":"Erume Airport","lat":-8.2538,"lng":146.9747,"country":"PG","type":"small_airport"},{"iata":"MFZ","name":"Meselia Airport","lat":-6.1364,"lng":149.1183,"country":"PG","keywords":"Mesalia, Mesilia","type":"small_airport"},{"iata":"BOT","name":"Bosset Airport","lat":-7.237257,"lng":141.1063222,"country":"PG","keywords":"Boset","type":"small_airport"},{"iata":"ERE","name":"Erave Airport","lat":-6.60646315446,"lng":143.900213242,"country":"PG","type":"small_airport"},{"iata":"SWE","name":"Siwea Airport","lat":-6.284181,"lng":147.582371,"country":"PG","type":"small_airport"},{"iata":"FNE","name":"Fane Airport","lat":-8.54927777778,"lng":147.085833333,"country":"PG","type":"small_airport"},{"iata":"FRQ","name":"Feramin Airport","lat":-5.208,"lng":141.6988,"country":"PG","keywords":"Feranmin","type":"small_airport"},{"iata":"FIN","name":"Finschhafen Airport","lat":-6.621750109,"lng":147.85405,"country":"PG","type":"small_airport"},{"iata":"FAQ","name":"Frieda River Airport","lat":-4.610468,"lng":141.960138,"country":"PG","type":"small_airport"},{"iata":"FUM","name":"Fuma Airport","lat":-6.3933,"lng":142.4408,"country":"PG","type":"small_airport"},{"iata":"GKA","name":"Goroka Airport","lat":-6.081689834590001,"lng":145.391998291,"country":"PG","type":"medium_airport"},{"iata":"GEW","name":"Gewoia Airport","lat":-9.2263,"lng":148.4949,"country":"PG","keywords":"Gewoya Airstrip","type":"small_airport"},{"iata":"GUG","name":"Guari Airport","lat":-8.1286,"lng":146.8722,"country":"PG","type":"small_airport"},{"iata":"GRL","name":"Garasa Airport","lat":-7.980713,"lng":147.213461,"country":"PG","type":"small_airport"},{"iata":"GAR","name":"Garaina Airport","lat":-7.875625,"lng":147.141266,"country":"PG","type":"small_airport"},{"iata":"GAZ","name":"Guasopa Airport","lat":-9.225918,"lng":152.944352,"country":"PG","keywords":"Woodlark Airfield, Narewa Airfield","type":"small_airport"},{"iata":"GOE","name":"Gonaili Airport","lat":-5.527716614,"lng":151.5733333,"country":"PG","keywords":"Gonali, Gonalia","type":"small_airport"},{"iata":"GUR","name":"Gurney Airport","lat":-10.3114995956,"lng":150.333999634,"country":"PG","type":"medium_airport"},{"iata":"GAP","name":"Gusap Airport","lat":-6.053196,"lng":145.959047,"country":"PG","type":"small_airport"},{"iata":"PNP","name":"Girua Airport","lat":-8.80453968048,"lng":148.309005737,"country":"PG","type":"medium_airport"},{"iata":"GBC","name":"Gasuke Airport","lat":-6.1028,"lng":141.7393,"country":"PG","type":"small_airport"},{"iata":"GMI","name":"Gasmata Island Airport","lat":-6.27111005783,"lng":150.330993652,"country":"PG","type":"small_airport"},{"iata":"AKG","name":"Anguganak Airport","lat":-3.560504,"lng":142.217307,"country":"PG","type":"small_airport"},{"iata":"GVI","name":"Green River Airport","lat":-3.9022428989400004,"lng":141.170516968,"country":"PG","type":"small_airport"},{"iata":"GOC","name":"Gora Airstrip","lat":-9.0021,"lng":148.2364,"country":"PG","type":"small_airport"},{"iata":"HBD","name":"Habi Airport","lat":-6.32,"lng":142.4893,"country":"PG","type":"small_airport"},{"iata":"HNI","name":"Heiweni Airport","lat":-7.4223,"lng":146.4276,"country":"PG","type":"small_airport"},{"iata":"HYF","name":"Hayfields Airport","lat":-3.69838,"lng":143.057902,"country":"PG","type":"small_airport"},{"iata":"HNN","name":"Honinabi Airport","lat":-6.2457,"lng":142.1771,"country":"PG","keywords":"Honinabe","type":"small_airport"},{"iata":"HKN","name":"Hoskins Airport","lat":-5.463846,"lng":150.407327,"country":"PG","type":"medium_airport"},{"iata":"HIT","name":"Haivaro Airport","lat":-6.9406,"lng":143.059,"country":"PG","keywords":"Haiwaro","type":"small_airport"},{"iata":"HWA","name":"Hawabango Airport","lat":-7.392994,"lng":146.003487,"country":"PG","keywords":"Hauwabaga","type":"small_airport"},{"iata":"IIS","name":"Nissan Island Airport","lat":-4.49972009659,"lng":154.225997925,"country":"PG","type":"small_airport"},{"iata":"IDN","name":"Indagen Airport","lat":-6.22663,"lng":147.244,"country":"PG","type":"small_airport"},{"iata":"IMN","name":"Imane Airport","lat":-6.7524,"lng":146.1072,"country":"PG","keywords":"Imani","type":"small_airport"},{"iata":"KGM","name":"Kungim Airport","lat":-5.671,"lng":141.03,"country":"PG","keywords":"Kungum","type":"small_airport"},{"iata":"IMD","name":"Imonda Airport","lat":-3.328,"lng":141.1573,"country":"PG","type":"small_airport"},{"iata":"KIE","name":"Aropa Airport","lat":-6.305727,"lng":155.728249,"country":"PG","type":"small_airport"},{"iata":"IAL","name":"Ialibu Airport","lat":-6.2782,"lng":143.9944,"country":"PG","keywords":"Lalibu","type":"small_airport"},{"iata":"WSA","name":"Wasua Airport","lat":-8.2836,"lng":142.8697,"country":"PG","type":"small_airport"},{"iata":"WIU","name":"Witu Airport","lat":-4.689522,"lng":149.440112,"country":"PG","type":"small_airport"},{"iata":"MPX","name":"Miyanmin Airport","lat":-4.903055555560001,"lng":141.620833333,"country":"PG","type":"small_airport"},{"iata":"KGH","name":"Yongai Airport","lat":-8.5289,"lng":147.4603,"country":"PG","type":"small_airport"},{"iata":"JOP","name":"Josephstaal Airport","lat":-4.74708333333,"lng":145.007083333,"country":"PG","type":"small_airport"},{"iata":"LSA","name":"Losuia Airport","lat":-8.505820274353027,"lng":151.08099365234375,"country":"PG","keywords":"Formerly Kiriwina Airport","type":"small_airport"},{"iata":"KBM","name":"Kabwum","lat":-6.15547222222,"lng":147.191472222,"country":"PG","type":"small_airport"},{"iata":"KDR","name":"Kandrian Airport","lat":-6.19217,"lng":149.54783,"country":"PG","type":"small_airport"},{"iata":"KMF","name":"Kamina Airport","lat":-7.64925,"lng":145.956944444,"country":"PG","type":"small_airport"},{"iata":"KPA","name":"Kopiago Airport","lat":-5.3883,"lng":142.4977,"country":"PG","type":"small_airport"},{"iata":"KAQ","name":"Kamulai Airport","lat":-8.150694444440001,"lng":146.834,"country":"PG","type":"small_airport"},{"iata":"UNG","name":"Kiunga Airport","lat":-6.1257100105285645,"lng":141.28199768066406,"country":"PG","type":"small_airport"},{"iata":"KNE","name":"Kanainj Airport","lat":-5.2903,"lng":144.7072,"country":"PG","type":"small_airport"},{"iata":"KRI","name":"Kikori Airport","lat":-7.42438,"lng":144.250076,"country":"PG","type":"small_airport"},{"iata":"KMA","name":"Kerema Airport","lat":-7.96361017227,"lng":145.770996094,"country":"PG","type":"medium_airport"},{"iata":"KKD","name":"Kokoda Airport","lat":-8.884679,"lng":147.730957,"country":"PG","type":"small_airport"},{"iata":"KGW","name":"Kagi Airport","lat":-9.135916666670001,"lng":147.669444444,"country":"PG","type":"small_airport"},{"iata":"KRX","name":"Kar Kar Airport","lat":-4.557,"lng":145.9404,"country":"PG","type":"small_airport"},{"iata":"KZF","name":"Kaintiba Airport","lat":-7.50025,"lng":146.033833333,"country":"PG","type":"small_airport"},{"iata":"KUQ","name":"Kuri Airport","lat":-7.135083,"lng":143.276111,"country":"PG","type":"small_airport"},{"iata":"KVG","name":"Kavieng Airport","lat":-2.57940006256,"lng":150.807998657,"country":"PG","type":"medium_airport"},{"iata":"KWO","name":"Kawito Airport","lat":-7.977006912229999,"lng":142.823577881,"country":"PG","type":"small_airport"},{"iata":"LNV","name":"Londolovit Airport","lat":-3.04361009598,"lng":152.628997803,"country":"PG","keywords":"Lihir Island, Kunaye","type":"small_airport"},{"iata":"LAB","name":"Lab Lab Airport","lat":-5.7204,"lng":148.0566,"country":"PG","keywords":"Lablab","type":"small_airport"},{"iata":"KEG","name":"Keglsugl Airport","lat":-5.83277777778,"lng":145.097222222,"country":"PG","type":"small_airport"},{"iata":"KII","name":"Kibuli Airstrip","lat":-9.006528,"lng":142.698056,"country":"PG","type":"small_airport"},{"iata":"LGN","name":"Linga Linga Airport","lat":-5.5319444444400006,"lng":149.734166667,"country":"PG","keywords":"Lingalinga","type":"small_airport"},{"iata":"LNM","name":"Langimar Airport","lat":-7.22313888889,"lng":146.227083333,"country":"PG","type":"small_airport"},{"iata":"LWI","name":"Lowai Airport","lat":-6.3344,"lng":146.6458,"country":"PG","type":"small_airport"},{"iata":"LPN","name":"Leron Plains Airport","lat":-6.3917,"lng":146.3434,"country":"PG","type":"small_airport"},{"iata":"LNG","name":"Lese Airport","lat":-8.2799,"lng":146.2765,"country":"PG","type":"small_airport"},{"iata":"LNC","name":"Lengbati Airport","lat":-6.384611111110001,"lng":147.368638889,"country":"PG","type":"small_airport"},{"iata":"LMI","name":"Lumi Airport","lat":-3.47683951134,"lng":142.041292191,"country":"PG","type":"small_airport"},{"iata":"LSJ","name":"Long Island Airport","lat":-5.3604,"lng":147.0177,"country":"PG","type":"small_airport"},{"iata":"MRM","name":"Manari Airport","lat":-9.1908,"lng":147.6219,"country":"PG","keywords":"Manare","type":"small_airport"},{"iata":"OBM","name":"Morobe Airport","lat":-7.74,"lng":147.59,"country":"PG","type":"small_airport"},{"iata":"MYX","name":"Menyamya Airport","lat":-7.21166666667,"lng":146.019361111,"country":"PG","type":"small_airport"},{"iata":"MAG","name":"Madang Airport","lat":-5.20707988739,"lng":145.789001465,"country":"PG","type":"medium_airport"},{"iata":"HGU","name":"Mount Hagen Kagamuga Airport","lat":-5.828212,"lng":144.299412,"country":"PG","type":"medium_airport"},{"iata":"MXK","name":"Mindik Airport","lat":-6.47166666667,"lng":147.441138889,"country":"PG","type":"small_airport"},{"iata":"MPG","name":"Makini Airport","lat":-6.532222222220001,"lng":147.651166667,"country":"PG","type":"small_airport"},{"iata":"GUV","name":"Mougulu Airport","lat":-6.280859,"lng":142.420775,"country":"PG","type":"small_airport"},{"iata":"MDU","name":"Mendi Airport","lat":-6.14774,"lng":143.656998,"country":"PG","type":"medium_airport"},{"iata":"MAS","name":"Momote Airport","lat":-2.06189,"lng":147.423996,"country":"PG","type":"medium_airport"},{"iata":"MLQ","name":"Malalaua Airport","lat":-8.07138888889,"lng":146.155472222,"country":"PG","type":"small_airport"},{"iata":"MQO","name":"Malam Airport","lat":-8.70916666667,"lng":142.649722222,"country":"PG","type":"small_airport"},{"iata":"MXH","name":"Moro Airport","lat":-6.36332988739,"lng":143.238006592,"country":"PG","type":"small_airport"},{"iata":"MIS","name":"Misima Island Airport","lat":-10.689200401299999,"lng":152.837997437,"country":"PG","type":"small_airport"},{"iata":"MKN","name":"Malekolon Airport","lat":-4.02343055556,"lng":153.657277778,"country":"PG","keywords":"Feni Islands","type":"small_airport"},{"iata":"MWG","name":"Marawaka Airport","lat":-6.9736,"lng":145.8849,"country":"PG","type":"small_airport"},{"iata":"MPU","name":"Mapua(Mabua) Airport","lat":-2.81138888889,"lng":151.991111111,"country":"PG","type":"small_airport"},{"iata":"NKN","name":"Nankina Airport","lat":-5.837,"lng":146.4533,"country":"PG","type":"small_airport"},{"iata":"KEX","name":"Kanabea Airport","lat":-7.538888888890001,"lng":145.905,"country":"PG","type":"small_airport"},{"iata":"NDN","name":"Nadunumu Airport","lat":-9.14355555556,"lng":147.68425,"country":"PG","type":"small_airport"},{"iata":"AUI","name":"Aua Island Airport","lat":-1.46055555556,"lng":143.064722222,"country":"PG","type":"small_airport"},{"iata":"GBF","name":"Negarbo(Negabo) Airport","lat":-6.567778,"lng":144.703058,"country":"PG","type":"small_airport"},{"iata":"MFO","name":"Manguna Airport","lat":-5.577778,"lng":151.792333,"country":"PG","type":"small_airport"},{"iata":"NUG","name":"Nuguria Airstrip","lat":-3.4075,"lng":154.7383,"country":"PG","type":"small_airport"},{"iata":"NDI","name":"Namudi Airport","lat":-9.47375,"lng":148.329416667,"country":"PG","type":"small_airport"},{"iata":"KSB","name":"Kasonombe Airport","lat":-6.3819,"lng":146.9859,"country":"PG","type":"small_airport"},{"iata":"KDP","name":"Kandep Airport","lat":-5.84061111111,"lng":143.507222222,"country":"PG","type":"small_airport"},{"iata":"NMN","name":"Nomane Airport","lat":-6.32183,"lng":145.070667,"country":"PG","type":"small_airport"},{"iata":"BXZ","name":"Bunsil Airport","lat":-5.7243,"lng":147.8667,"country":"PG","keywords":"Bonsil Airport","type":"small_airport"},{"iata":"UKU","name":"Nuku Airport","lat":-3.676765,"lng":142.48492,"country":"PG","type":"small_airport"},{"iata":"ATN","name":"Namatanai Airport","lat":-3.6695,"lng":152.438,"country":"PG","type":"small_airport"},{"iata":"NBA","name":"Nambaiyufa Airport","lat":-6.2412,"lng":145.2424,"country":"PG","type":"small_airport"},{"iata":"LAE","name":"Nadzab Tomodachi International Airport","lat":-6.567995,"lng":146.726544,"country":"PG","keywords":"MFO","type":"large_airport"},{"iata":"OBX","name":"Obo Airport","lat":-7.590622421369999,"lng":141.324262619,"country":"PG","type":"small_airport"},{"iata":"KGB","name":"Konge Airport","lat":-6.2239,"lng":147.2152,"country":"PG","type":"small_airport"},{"iata":"OKV","name":"Okao Airport","lat":-5.55666666667,"lng":141.032777778,"country":"PG","type":"small_airport"},{"iata":"OGE","name":"Ogeranang Airport","lat":-6.46675,"lng":147.364166667,"country":"PG","type":"small_airport"},{"iata":"OKP","name":"Oksapmin Airport","lat":-5.2261,"lng":142.2259,"country":"PG","type":"small_airport"},{"iata":"HOC","name":"Komako Airport","lat":-7.3984,"lng":145.8827,"country":"PG","type":"small_airport"},{"iata":"KQL","name":"Kol Airport","lat":-5.73116666667,"lng":144.846,"country":"PG","type":"small_airport"},{"iata":"OSE","name":"Omora Airport","lat":-7.82777777778,"lng":147.080638889,"country":"PG","type":"small_airport"},{"iata":"KOM","name":"Komo-Manda Airport","lat":-6.0682,"lng":142.8598,"country":"PG","type":"small_airport"},{"iata":"KSP","name":"Kosipe Airport","lat":-8.450716,"lng":147.209195,"country":"PG","keywords":"Kosipi","type":"small_airport"},{"iata":"KCJ","name":"Komaio Airport","lat":-7.2714,"lng":143.5952,"country":"PG","type":"small_airport"},{"iata":"OLQ","name":"Olsobip Airport","lat":-5.3897222222200005,"lng":141.515277778,"country":"PG","type":"small_airport"},{"iata":"KDE","name":"Koroba Airport","lat":-5.6952,"lng":142.7441,"country":"PG","type":"small_airport"},{"iata":"OPB","name":"Open Bay Airport","lat":-4.794727,"lng":151.696195,"country":"PG","type":"small_airport"},{"iata":"PLE","name":"Paiela Airport","lat":-5.372407,"lng":142.975774,"country":"PG","type":"small_airport"},{"iata":"PGB","name":"Pangoa Airport","lat":-7.0226,"lng":141.5605,"country":"PG","type":"small_airport"},{"iata":"PDI","name":"Pindiu Airport","lat":-6.445138888890001,"lng":147.515833333,"country":"PG","type":"small_airport"},{"iata":"APR","name":"April River Airport","lat":-4.67666666667,"lng":142.540138889,"country":"PG","type":"small_airport"},{"iata":"PGN","name":"Pangia Airport","lat":-6.386,"lng":144.1084,"country":"PG","type":"small_airport"},{"iata":"PMP","name":"Pimaga Airport","lat":-6.49916666667,"lng":143.510277778,"country":"PG","type":"small_airport"},{"iata":"MPF","name":"Mapoda Airport","lat":-7.979,"lng":143.1694,"country":"PG","keywords":"Mapodo","type":"small_airport"},{"iata":"PMN","name":"Pumani Airport","lat":-9.7469,"lng":149.4766,"country":"PG","type":"small_airport"},{"iata":"WLU","name":"Walluanda Airport","lat":-6.475161,"lng":143.987222,"country":"PG","keywords":"AYPU, Puri Airport","type":"small_airport"},{"iata":"POM","name":"Port Moresby Jacksons International Airport","lat":-9.443380355834961,"lng":147.22000122070312,"country":"PG","type":"large_airport"},{"iata":"KRJ","name":"Karawari Airstrip","lat":-4.59666666667,"lng":143.5225,"country":"PG","keywords":"AMG, Amboin Airport","type":"small_airport"},{"iata":"TLP","name":"Tumolbil Airport","lat":-4.7748,"lng":141.0133,"country":"PG","type":"small_airport"},{"iata":"SPH","name":"Sopu Airport","lat":-8.3038,"lng":147.1659,"country":"PG","type":"small_airport"},{"iata":"ONB","name":"Ononge Airport","lat":-8.67436111111,"lng":147.262416667,"country":"PG","type":"small_airport"},{"iata":"SXA","name":"Sialum Airport","lat":-6.0908,"lng":147.5955,"country":"PG","type":"small_airport"},{"iata":"KIQ","name":"Kira Airport","lat":-8.065111111110001,"lng":147.332027778,"country":"PG","type":"small_airport"},{"iata":"RBP","name":"Raba Raba Airport","lat":-9.97111111111,"lng":149.832222222,"country":"PG","keywords":"Rabaraba","type":"small_airport"},{"iata":"RMN","name":"Rumginae Airport","lat":-5.89722222222,"lng":141.271666667,"country":"PG","type":"small_airport"},{"iata":"KMR","name":"Karimui Airport","lat":-6.4921,"lng":144.823,"country":"PG","type":"small_airport"},{"iata":"RKU","name":"Kairuku Airport","lat":-8.817000054,"lng":146.5243833,"country":"PG","type":"small_airport"},{"iata":"MWI","name":"Maramuni Airport","lat":-5.13,"lng":143.4829,"country":"PG","type":"small_airport"},{"iata":"KOR","name":"Kakoro(Koroko) Airstrip","lat":-7.8346666666700004,"lng":146.5335,"country":"PG","type":"small_airport"},{"iata":"MRH","name":"May River Airstrip","lat":-4.3615,"lng":141.785,"country":"PG","type":"small_airport"},{"iata":"SBE","name":"Suabi Airport","lat":-6.10444444444,"lng":142.278333333,"country":"PG","type":"small_airport"},{"iata":"SDI","name":"Saidor Airport","lat":-5.62713888889,"lng":146.462777778,"country":"PG","type":"small_airport"},{"iata":"NIS","name":"Simberi Airport","lat":-2.66222222222,"lng":151.997777778,"country":"PG","type":"small_airport"},{"iata":"SFU","name":"Safia Airport","lat":-9.594471,"lng":148.639305,"country":"PG","type":"small_airport"},{"iata":"SIL","name":"Sila Airport","lat":-9.07355555556,"lng":148.38925,"country":"PG","type":"small_airport"},{"iata":"SBV","name":"Sabah Airport","lat":-5.5765,"lng":155.0489,"country":"PG","type":"small_airport"},{"iata":"SIM","name":"Simbai Airport","lat":-5.278611111110001,"lng":144.544722222,"country":"PG","type":"small_airport"},{"iata":"SGK","name":"Sengapi Airstrip","lat":-5.12583333333,"lng":144.323611111,"country":"PG","keywords":"Sangapi","type":"small_airport"},{"iata":"SXH","name":"Sehulea Airport","lat":-9.96452777778,"lng":151.161861111,"country":"PG","type":"small_airport"},{"iata":"SBC","name":"Selbang Airport","lat":-5.315,"lng":141.752,"country":"PG","type":"small_airport"},{"iata":"SMH","name":"Sapmanga Airport","lat":-6.075277777779999,"lng":146.811111111,"country":"PG","type":"small_airport"},{"iata":"SPV","name":"Sepik Plains Airport","lat":-3.8821,"lng":143.6734,"country":"PG","type":"small_airport"},{"iata":"TDS","name":"Sasereme Airport","lat":-7.6217,"lng":142.868,"country":"PG","type":"small_airport"},{"iata":"SKC","name":"Suki Airport","lat":-8.0466,"lng":141.7222,"country":"PG","type":"small_airport"},{"iata":"SXW","name":"Sauren Airport","lat":-5.9701,"lng":148.8543,"country":"PG","keywords":"Souren","type":"small_airport"},{"iata":"SWG","name":"Satwag Airport","lat":-6.13955555556,"lng":147.279166667,"country":"PG","type":"small_airport"},{"iata":"MBV","name":"Masa Airport","lat":-6.345,"lng":147.591,"country":"PG","type":"small_airport"},{"iata":"TIZ","name":"Tari Airport","lat":-5.845,"lng":142.947998,"country":"PG","type":"small_airport"},{"iata":"TBG","name":"Tabubil Airport","lat":-5.280471,"lng":141.227576,"country":"PG","type":"small_airport"},{"iata":"TFM","name":"Telefomin Airport","lat":-5.12608,"lng":141.641922,"country":"PG","type":"small_airport"},{"iata":"TDB","name":"Tetebedi Airport","lat":-9.1586,"lng":148.0686,"country":"PG","keywords":"Tetabedi","type":"small_airport"},{"iata":"TGL","name":"Tagula Airport","lat":-11.3311111111,"lng":153.202916667,"country":"PG","type":"small_airport"},{"iata":"TFB","name":"Tifalmin Airport","lat":-5.117249,"lng":141.418076,"country":"PG","type":"small_airport"},{"iata":"TPI","name":"Tapini Airport","lat":-8.35666666667,"lng":146.989166667,"country":"PG","type":"small_airport"},{"iata":"RAB","name":"Tokua Airport","lat":-4.34046,"lng":152.380005,"country":"PG","type":"medium_airport"},{"iata":"TKW","name":"Tekin Airport","lat":-5.243667,"lng":142.165194,"country":"PG","type":"small_airport"},{"iata":"KDQ","name":"Kamberatoro Airport","lat":-3.600556,"lng":141.051667,"country":"PG","type":"small_airport"},{"iata":"TEP","name":"Tep Tep Airport","lat":-5.9553,"lng":146.5595,"country":"PG","type":"small_airport"},{"iata":"TBQ","name":"Tarabo Airport","lat":-6.46666666667,"lng":145.532222222,"country":"PG","type":"small_airport"},{"iata":"TSW","name":"Tsewi Airport","lat":-7.0695,"lng":146.1272,"country":"PG","type":"small_airport"},{"iata":"TRJ","name":"Tarakbits Airport","lat":-5.614,"lng":141.0421,"country":"PG","keywords":"Tarakpits, Tarabits","type":"small_airport"},{"iata":"TFI","name":"Tufi Airport","lat":-9.07595443726,"lng":149.319839478,"country":"PG","type":"small_airport"},{"iata":"TBE","name":"Timbunke Airport","lat":-4.196633,"lng":143.519222,"country":"PG","type":"small_airport"},{"iata":"TWY","name":"Tawa Airport","lat":-7.4463,"lng":146.1067,"country":"PG","type":"small_airport"},{"iata":"TEO","name":"Terapo Airport","lat":-8.16972222222,"lng":146.194444444,"country":"PG","type":"small_airport"},{"iata":"TKB","name":"Tekadu Airport","lat":-7.6808,"lng":146.5503,"country":"PG","type":"small_airport"},{"iata":"UMC","name":"Umba Airport","lat":-7.0214,"lng":145.966,"country":"PG","type":"small_airport"},{"iata":"URU","name":"Uroubi Airport","lat":-9.5162,"lng":148.5591,"country":"PG","type":"small_airport"},{"iata":"UBI","name":"Buin Airport","lat":-6.72916666667,"lng":155.683333333,"country":"PG","keywords":"Kara Airfield, Toripoil Airfield","type":"small_airport"},{"iata":"AUV","name":"Aumo Airport","lat":-5.731111111110001,"lng":148.445277778,"country":"PG","type":"small_airport"},{"iata":"GLP","name":"Gulgubip Airport","lat":-5.2808,"lng":141.5411,"country":"PG","type":"small_airport"},{"iata":"UPR","name":"Upiara Airport","lat":-8.5411,"lng":142.6503,"country":"PG","type":"small_airport"},{"iata":"KUX","name":"Kuyol Airport","lat":-5.372361111110001,"lng":141.623888889,"country":"PG","type":"small_airport"},{"iata":"UVO","name":"Uvol Airport","lat":-6.0178,"lng":150.9557,"country":"PG","type":"small_airport"},{"iata":"TLW","name":"Talasea Airport","lat":-5.2726,"lng":150.0089,"country":"PG","type":"small_airport"},{"iata":"TCJ","name":"Torembi Airport","lat":-4.0165,"lng":143.1329,"country":"PG","type":"small_airport"},{"iata":"VAI","name":"Vanimo Airport","lat":-2.6926,"lng":141.3028,"country":"PG","type":"medium_airport"},{"iata":"TON","name":"Tonu Airport","lat":-6.6552,"lng":155.4326,"country":"PG","type":"small_airport"},{"iata":"WUV","name":"Wuvulu Island Airport","lat":-1.73611111111,"lng":142.836666667,"country":"PG","type":"small_airport"},{"iata":"WAO","name":"Wabo Airport","lat":-6.98944444444,"lng":145.075111111,"country":"PG","type":"small_airport"},{"iata":"WTT","name":"Wantoat Airport","lat":-6.1325,"lng":146.467777778,"country":"PG","keywords":"Wontoat","type":"small_airport"},{"iata":"WBM","name":"Wapenamanda Airport","lat":-5.635293,"lng":143.892231,"country":"PG","type":"medium_airport"},{"iata":"WAJ","name":"Wawoi Falls Airport","lat":-6.9523,"lng":142.6557,"country":"PG","keywords":"Wavwoi Falls","type":"small_airport"},{"iata":"AGL","name":"Wanigela Airport","lat":-9.3375,"lng":149.155556,"country":"PG","type":"small_airport"},{"iata":"WNU","name":"Wanuma Airport","lat":-4.8961,"lng":145.3213,"country":"PG","type":"small_airport"},{"iata":"WBC","name":"Wapolu Airport","lat":-9.3376,"lng":150.5093,"country":"PG","type":"small_airport"},{"iata":"WWK","name":"Wewak International Airport","lat":-3.58383011818,"lng":143.669006348,"country":"PG","type":"medium_airport"},{"iata":"WOA","name":"Wonenara Airport","lat":-6.796861111110001,"lng":145.891944444,"country":"PG","type":"small_airport"},{"iata":"WKN","name":"Wakunai Airport","lat":-5.8603,"lng":155.2223,"country":"PG","type":"small_airport"},{"iata":"WSU","name":"Wasu Airport","lat":-5.96170944919,"lng":147.19822526,"country":"PG","type":"small_airport"},{"iata":"WTP","name":"Woitape Airport","lat":-8.545833,"lng":147.2525,"country":"PG","type":"small_airport"},{"iata":"WUG","name":"Wau Airport","lat":-7.345556,"lng":146.718611,"country":"PG","type":"small_airport"},{"iata":"YVD","name":"Yeva Airport","lat":-7.548,"lng":146.188,"country":"PG","type":"small_airport"},{"iata":"SMJ","name":"Sim Airport","lat":-7.75,"lng":146.9273,"country":"PG","type":"small_airport"},{"iata":"TLO","name":"Tol Airport","lat":-4.98083019257,"lng":152.009994507,"country":"PG","type":"small_airport"},{"iata":"WPM","name":"Wipim Airport","lat":-8.78822,"lng":142.882004,"country":"PG","type":"small_airport"},{"iata":"WEP","name":"Weam Airport","lat":-8.6184,"lng":141.1381,"country":"PG","type":"small_airport"},{"iata":"KYX","name":"Yalumet Airport","lat":-6.09,"lng":147.0117,"country":"PG","type":"small_airport"},{"iata":"YEQ","name":"Yenkis(Yankisa) Airport","lat":-5.10972222222,"lng":143.917666667,"country":"PG","type":"small_airport"},{"iata":"TCK","name":"Tinboli Airport","lat":-4.0949,"lng":143.3838,"country":"PG","type":"small_airport"},{"iata":"LNF","name":"Munbil Airport","lat":-4.855941,"lng":141.220165,"country":"PG","type":"small_airport"},{"iata":"RAX","name":"Oram Airport","lat":-9.632916666669997,"lng":148.048055556,"country":"PG","type":"small_airport"},{"iata":"KPE","name":"Yapsiei Airport","lat":-4.6280555555600005,"lng":141.094166667,"country":"PG","type":"small_airport"},{"iata":"KSX","name":"Yasuru Airport","lat":-6.6015,"lng":146.1813,"country":"PG","type":"small_airport"},{"iata":"ZEN","name":"Zenag Airport","lat":-6.9522222222200005,"lng":146.61625,"country":"PG","keywords":"Zenang,","type":"small_airport"},{"iata":"SWR","name":"Silur Airport","lat":-4.5298888888899995,"lng":153.054444444,"country":"PG","type":"small_airport"},{"iata":"WUM","name":"Wasum Airport","lat":-6.0491,"lng":149.337,"country":"PG","type":"small_airport"},{"iata":"SIZ","name":"Sissano Airport","lat":-2.99944444444,"lng":142.0445,"country":"PG","type":"small_airport"},{"iata":"OSG","name":"Ossima Airport","lat":-2.91555555556,"lng":141.297305556,"country":"PG","type":"small_airport"},{"iata":"ZXT","name":"Zabrat Airport","lat":40.494884,"lng":49.977065,"country":"AZ","type":"medium_airport"},{"iata":"AZB","name":"Amazon Bay Airport","lat":-10.2991666667,"lng":149.338333333,"country":"PG","type":"small_airport"},{"iata":"BAJ","name":"Bali Airport","lat":-4.8833333333299995,"lng":149.133333333,"country":"PG","type":"small_airport"},{"iata":"BCW","name":"Benguera Island Airport","lat":-21.8533,"lng":35.438301,"country":"MZ","type":"medium_airport"},{"iata":"BCZ","name":"Milyakburra Airport","lat":-13.780833333299999,"lng":136.201666667,"country":"AU","type":"small_airport"},{"iata":"JAM","name":"Bezmer Air Base","lat":42.454899,"lng":26.3522,"country":"BG","keywords":"LB44","type":"medium_airport"},{"iata":"JEG","name":"Aasiaat Airport","lat":68.721802,"lng":-52.784698,"country":"GL","keywords":"Mittarfik Aasiaat, Aasiaat Lufthavn, Egedesminde","type":"medium_airport"},{"iata":"CNP","name":"Neerlerit Inaat Airport","lat":70.743103,"lng":-22.650499,"country":"GL","keywords":"Constable Point, Mittarfik Nerlerit Inaat, Constable Pynt Lufthavn","type":"medium_airport"},{"iata":"GOH","name":"Nuuk International Airport","lat":64.191066,"lng":-51.67914,"country":"GL","keywords":"Godthåb, Nuussuaq, Mittarfik Nuuk, Nuuk International","type":"large_airport"},{"iata":"JAV","name":"Ilulissat Airport","lat":69.243202,"lng":-51.057098,"country":"GL","keywords":"Mittarfik Ilulissat, Ilulissat Lufthavn, Jakobshavn","type":"medium_airport"},{"iata":"KUS","name":"Kulusuk Airport","lat":65.573601,"lng":-37.1236,"country":"GL","keywords":"Kap Dan, BGKD","type":"medium_airport"},{"iata":"JSU","name":"Maniitsoq Airport","lat":65.412498,"lng":-52.9394,"country":"GL","keywords":"Mittarfik Maniitsoq, Sukkertoppen","type":"small_airport"},{"iata":"JFR","name":"Paamiut Airport","lat":62.014736,"lng":-49.670937,"country":"GL","keywords":"Mittarfik Paamiut, Frederikshåb","type":"small_airport"},{"iata":"NAQ","name":"Qaanaaq Airport","lat":77.488602,"lng":-69.388702,"country":"GL","keywords":"Mittarfik Qaanaaq, Thule","type":"medium_airport"},{"iata":"SFJ","name":"Kangerlussuaq International Airport","lat":67.010446,"lng":-50.715294,"country":"GL","keywords":"Bluie West 8, Sondrestrom Air Base, Sondrestromfjord Air Base","type":"medium_airport"},{"iata":"JHS","name":"Sisimiut Airport","lat":66.951302,"lng":-53.729301,"country":"GL","type":"medium_airport"},{"iata":"THU","name":"Pituffik Space Base","lat":76.53063,"lng":-68.700541,"country":"GL","keywords":"Thule Air Base","type":"medium_airport"},{"iata":"JUV","name":"Upernavik Airport","lat":72.790199,"lng":-56.1306,"country":"GL","keywords":"Mittarfik Upernavik","type":"small_airport"},{"iata":"JQA","name":"Qaarsut Airport","lat":70.7342,"lng":-52.696201,"country":"GL","type":"small_airport"},{"iata":"BHL","name":"Bahía de los Ángeles Airport","lat":28.9786,"lng":-113.560997,"country":"MX","type":"small_airport"},{"iata":"BHT","name":"Brighton Downs Airport","lat":-23.365763,"lng":141.562947,"country":"AU","type":"small_airport"},{"iata":"AEY","name":"Akureyri International Airport","lat":65.656573,"lng":-18.072018,"country":"IS","type":"large_airport"},{"iata":"BIU","name":"Bildudalur Airport","lat":65.641296,"lng":-23.5462,"country":"IS","type":"medium_airport"},{"iata":"BGJ","name":"Borgarfjörður eystri Airport","lat":65.516769,"lng":-13.81578,"country":"IS","type":"small_airport"},{"iata":"BLO","name":"Blönduós Airport","lat":65.644997,"lng":-20.2875,"country":"IS","type":"small_airport"},{"iata":"BXV","name":"Breiðdalsvík Airport","lat":64.790037,"lng":-14.043927,"country":"IS","type":"small_airport"},{"iata":"DJU","name":"Djúpivogur Airport","lat":64.642372,"lng":-14.277297,"country":"IS","type":"small_airport"},{"iata":"EGS","name":"Egilsstaðir Airport","lat":65.2833023071289,"lng":-14.401399612426758,"country":"IS","type":"medium_airport"},{"iata":"FAG","name":"Fagurhólsmýri Airport","lat":63.874699,"lng":-16.6411,"country":"IS","type":"small_airport"},{"iata":"GUU","name":"Grundarfjörður Airport","lat":64.991402,"lng":-23.224701,"country":"IS","type":"small_airport"},{"iata":"GJR","name":"Gjögur Airport","lat":65.9953,"lng":-21.3269,"country":"IS","type":"small_airport"},{"iata":"GRY","name":"Grímsey Airport","lat":66.5458,"lng":-18.0173,"country":"IS","keywords":"Sandvík","type":"medium_airport"},{"iata":"HVK","name":"Hólmavík Airport","lat":65.704697,"lng":-21.6964,"country":"IS","type":"small_airport"},{"iata":"HFN","name":"Hornafjörður Airport","lat":64.295601,"lng":-15.2272,"country":"IS","type":"medium_airport"},{"iata":"HZK","name":"Húsavík Airport","lat":65.952301,"lng":-17.426001,"country":"IS","type":"medium_airport"},{"iata":"IFJ","name":"Ísafjörður Airport","lat":66.058098,"lng":-23.1353,"country":"IS","type":"medium_airport"},{"iata":"KEF","name":"Keflavik International Airport","lat":63.985001,"lng":-22.6056,"country":"IS","keywords":"Keflavik Naval Air Station, REK","type":"large_airport"},{"iata":"OPA","name":"Kópasker Airport","lat":66.310799,"lng":-16.4667,"country":"IS","type":"small_airport"},{"iata":"SAK","name":"Sauðárkrókur Airport","lat":65.73169708249999,"lng":-19.572799682599996,"country":"IS","type":"small_airport"},{"iata":"NOR","name":"Norðfjörður Airport","lat":65.131897,"lng":-13.7464,"country":"IS","type":"small_airport"},{"iata":"RHA","name":"Reykhólar Airport","lat":65.45262908935547,"lng":-22.20611572265625,"country":"IS","type":"small_airport"},{"iata":"OLI","name":"Rif Airport","lat":64.911377,"lng":-23.818205,"country":"IS","type":"small_airport"},{"iata":"RFN","name":"Raufarhöfn Airport","lat":66.406403,"lng":-15.9183,"country":"IS","type":"small_airport"},{"iata":"RKV","name":"Reykjavík Domestic Airport","lat":64.128732,"lng":-21.93759,"country":"IS","keywords":"REK","type":"medium_airport"},{"iata":"MVA","name":"Mývatn Airport","lat":65.6558,"lng":-16.9181,"country":"IS","keywords":"Reykjahlíð","type":"medium_airport"},{"iata":"SIJ","name":"Siglufjörður Airport","lat":66.137847,"lng":-18.908157,"country":"IS","type":"medium_airport"},{"iata":"SYK","name":"Stykkishólmur Airport","lat":65.058851,"lng":-22.764616,"country":"IS","type":"small_airport"},{"iata":"TEY","name":"Þingeyri Airport","lat":65.8703,"lng":-23.559999,"country":"IS","keywords":"Thingeyri","type":"small_airport"},{"iata":"THO","name":"Þórshöfn Airport","lat":66.218459,"lng":-15.334739,"country":"IS","keywords":"Thorshofn","type":"small_airport"},{"iata":"VEY","name":"Vestmannaeyjar Airport","lat":63.42430114746094,"lng":-20.278900146484375,"country":"IS","type":"medium_airport"},{"iata":"VPN","name":"Vopnafjörður Airport","lat":65.720596,"lng":-14.8506,"country":"IS","type":"medium_airport"},{"iata":"BJE","name":"Baleela Airport","lat":11.199444444400001,"lng":28.5230555556,"country":"SD","type":"small_airport"},{"iata":"BJQ","name":"Bahja Airport","lat":19.8730555556,"lng":56.067777777799996,"country":"OM","type":"small_airport"},{"iata":"PRN","name":"Priština Adem Jashari International Airport","lat":42.5728,"lng":21.035801,"country":"XK","keywords":"LYPR, Pristina, Slatina Air Base","type":"large_airport"},{"iata":"BMQ","name":"Bamburi Airport","lat":-3.98138,"lng":39.73112,"country":"KE","type":"small_airport"},{"iata":"BNV","name":"Boana Airport","lat":-6.426631,"lng":146.826697,"country":"PG","type":"small_airport"},{"iata":"BVL","name":"Baures Airport","lat":-13.654426,"lng":-63.704718,"country":"BO","type":"small_airport"},{"iata":"BOV","name":"Boang Airport","lat":-3.3834,"lng":153.2812,"country":"PG","type":"small_airport"},{"iata":"CJZ","name":"Pedro Vieira Moreira Airport","lat":-6.8827,"lng":-38.61583,"country":"BR","type":"small_airport"},{"iata":"VDC","name":"Glauber de Andrade Rocha Airport","lat":-14.907885,"lng":-40.914804,"country":"BR","keywords":"SSVC","type":"medium_airport"},{"iata":"CMP","name":"Santana do Araguaia Airport","lat":-9.319906,"lng":-50.328536,"country":"BR","keywords":"SNKE","type":"small_airport"},{"iata":"AAI","name":"Arraias Airport","lat":-13.025154,"lng":-46.884107,"country":"BR","keywords":"SWRA","type":"small_airport"},{"iata":"ITN","name":"Tertuliano Guedes de Pinho Airport","lat":-14.8105,"lng":-39.290401,"country":"BR","keywords":"SNHA, SB01, SWTX","type":"small_airport"},{"iata":"LEP","name":"Leopoldina Airport","lat":-21.468226,"lng":-42.727076,"country":"BR","keywords":"SNDN","type":"small_airport"},{"iata":"CPU","name":"Cururupu Airport","lat":-1.820006,"lng":-44.864065,"country":"BR","keywords":"SNCU","type":"small_airport"},{"iata":"CTQ","name":"Santa Vitória do Palmar Airport","lat":-33.502038,"lng":-53.344911,"country":"BR","keywords":"SSVP","type":"small_airport"},{"iata":"APY","name":"Alto Parnaíba Airport","lat":-9.08533,"lng":-45.955603,"country":"BR","keywords":"SNAI","type":"small_airport"},{"iata":"JRN","name":"Juruena Airport","lat":-10.314114,"lng":-58.494877,"country":"BR","keywords":"SWJU","type":"small_airport"},{"iata":"MTG","name":"Vila Bela da Santíssima Trindade Airport","lat":-14.995499,"lng":-59.945662,"country":"BR","keywords":"Mato Grosso Airport, BR-3150","type":"small_airport"},{"iata":"ALT","name":"Alenquer Municipal Airport","lat":-1.917,"lng":-54.7231,"country":"BR","type":"small_airport"},{"iata":"BSV","name":"Besakoa Airport","lat":-15.6725,"lng":47.061667,"country":"MG","type":"small_airport"},{"iata":"BTZ","name":"Betong International Airport","lat":5.79,"lng":101.15,"country":"TH","type":"medium_airport"},{"iata":"HUK","name":"Hukuntsi Airport","lat":-23.9897,"lng":21.758101,"country":"BW","keywords":"FB24","type":"small_airport"},{"iata":"BWJ","name":"Bawan Airport","lat":-6.396944444440001,"lng":146.881666667,"country":"PG","type":"small_airport"},{"iata":"TXC","name":"Orsha Airport - Balbasovo Air Base","lat":54.439999,"lng":30.2967,"country":"BY","keywords":"Balbasava, Bolbasovo, Orsha Southwest","type":"medium_airport"},{"iata":"BYA","name":"Boundary Airport","lat":64.077678,"lng":-141.122088,"country":"US","type":"small_airport"},{"iata":"BYL","name":"Bella Yella Airport","lat":7.36916666667,"lng":-9.99372222222,"country":"LR","type":"small_airport"},{"iata":"BCV","name":"Hector Silva Airstrip","lat":17.269603,"lng":-88.776496,"country":"BZ","keywords":"Belmopan Airport","type":"small_airport"},{"iata":"BGK","name":"Big Creek Airport","lat":16.519369,"lng":-88.407913,"country":"BZ","type":"small_airport"},{"iata":"CUK","name":"Caye Caulker Airport","lat":17.735015,"lng":-88.032862,"country":"BZ","type":"medium_airport"},{"iata":"CYC","name":"Caye Chapel Airport","lat":17.683792,"lng":-88.044985,"country":"BZ","type":"medium_airport"},{"iata":"CZH","name":"Corozal Airport","lat":18.3822,"lng":-88.411903,"country":"BZ","keywords":"Ranchito Airport","type":"medium_airport"},{"iata":"DGA","name":"Dangriga Airport","lat":16.98251,"lng":-88.230988,"country":"BZ","keywords":"Stann Creek Airport","type":"medium_airport"},{"iata":"INB","name":"Independence Airport","lat":16.53456,"lng":-88.441615,"country":"BZ","keywords":"Savannah, Mango Creek","type":"small_airport"},{"iata":"MDB","name":"Melinda Airport","lat":16.998419,"lng":-88.318191,"country":"BZ","type":"small_airport"},{"iata":"ORZ","name":"H.E Alfredo Martinez (Tower Hill) Airstrip","lat":18.046767,"lng":-88.583858,"country":"BZ","keywords":"Orange Walk Airport","type":"small_airport"},{"iata":"PND","name":"Punta Gorda Airport","lat":16.1024,"lng":-88.808296,"country":"BZ","type":"small_airport"},{"iata":"SJX","name":"Sartaneja Airport","lat":18.3561,"lng":-88.130798,"country":"BZ","type":"medium_airport"},{"iata":"SPR","name":"John Greif II Airport","lat":17.9139,"lng":-87.9711,"country":"BZ","type":"medium_airport"},{"iata":"SQS","name":"Matthew Spain Airport","lat":17.185898,"lng":-89.009936,"country":"BZ","keywords":"Central Farm Airstrip","type":"small_airport"},{"iata":"STU","name":"Santa Cruz Airport","lat":18.2721004486084,"lng":-88.456298828125,"country":"BZ","type":"small_airport"},{"iata":"SVK","name":"Silver Creek Airport","lat":16.728338,"lng":-88.369174,"country":"BZ","type":"small_airport"},{"iata":"TZA","name":"Sir Barry Bowen Municipal Airport","lat":17.517239,"lng":-88.195775,"country":"BZ","keywords":"Belize City Municipal","type":"medium_airport"},{"iata":"BZB","name":"Bazaruto Island Airport","lat":-21.5411,"lng":35.4729,"country":"MZ","type":"medium_airport"},{"iata":"BZM","name":"Bemolanga Airport","lat":-17.6925,"lng":45.0888333333,"country":"MG","type":"small_airport"},{"iata":"PFM","name":"Primrose Airport","lat":55.390002,"lng":-111.1198,"country":"CA","keywords":"FN6","type":"small_airport"},{"iata":"YSV","name":"Saglek Airport","lat":58.474312,"lng":-62.653999,"country":"CA","type":"small_airport"},{"iata":"YRR","name":"Stuart Island Airstrip","lat":50.409447,"lng":-125.131617,"country":"CA","type":"small_airport"},{"iata":"YMV","name":"Mary River Aerodrome","lat":71.324167,"lng":-79.356944,"country":"CA","type":"small_airport"},{"iata":"PYS","name":"Paradise Skypark Airport","lat":39.71029,"lng":-121.616528,"country":"US","keywords":"Formerly L24","type":"small_airport"},{"iata":"YZZ","name":"Trail Regional Airport","lat":49.055599,"lng":-117.609001,"country":"CA","keywords":"AD4","type":"small_airport"},{"iata":"YMB","name":"Merritt Airport","lat":50.122504,"lng":-120.745368,"country":"CA","keywords":"AD5, Saunders Field","type":"small_airport"},{"iata":"CJH","name":"Chilko Lake (Tsylos Park Lodge) Airport","lat":51.625797,"lng":-124.144478,"country":"CA","keywords":"AG3","type":"small_airport"},{"iata":"YCA","name":"Courtenay Airpark","lat":49.679237,"lng":-124.98064,"country":"CA","keywords":"AH3","type":"small_airport"},{"iata":"CFQ","name":"Creston Valley Regional Airport - Art Sutcliffe Field","lat":49.03689956665,"lng":-116.49800109863,"country":"CA","keywords":"AJ3","type":"small_airport"},{"iata":"YAA","name":"Anahim Lake Airport","lat":52.451501,"lng":-125.303776,"country":"CA","keywords":"AJ4","type":"medium_airport"},{"iata":"DGF","name":"Douglas Lake Airport","lat":50.1654600485,"lng":-120.171273351,"country":"CA","keywords":"AL3","type":"small_airport"},{"iata":"JHL","name":"Fort MacKay/Albian Aerodrome","lat":57.223899841299996,"lng":-111.418998718,"country":"CA","keywords":"Shell Canada, Jackpine Mine","type":"small_airport"},{"iata":"DUQ","name":"Duncan Airport","lat":48.754534,"lng":-123.709702,"country":"CA","keywords":"AM3","type":"small_airport"},{"iata":"YHS","name":"Sechelt-Gibsons Airport","lat":49.460601806599996,"lng":-123.71900177,"country":"CA","keywords":"AP3, Sechelt Aerodrome, Sunshine Coast Airfield","type":"small_airport"},{"iata":"XQU","name":"Qualicum Beach Airport","lat":49.337456,"lng":-124.393086,"country":"CA","keywords":"AT4","type":"medium_airport"},{"iata":"YMP","name":"Port McNeill Airport","lat":50.57348,"lng":-127.027702,"country":"CA","keywords":"AT5","type":"small_airport"},{"iata":"YZA","name":"Cache Creek-Ashcroft Regional Airport","lat":50.775258,"lng":-121.321314,"country":"CA","keywords":"AZ5","type":"medium_airport"},{"iata":"ZEL","name":"Bella Bella (Campbell Island) Airport","lat":52.185001,"lng":-128.156994,"country":"CA","keywords":"BBC","type":"medium_airport"},{"iata":"CBC","name":"Cherrabun Airport","lat":-18.917777777800005,"lng":125.537777778,"country":"AU","type":"small_airport"},{"iata":"YPB","name":"Alberni Valley Regional Airport","lat":49.321899,"lng":-124.931,"country":"CA","keywords":"BS8","type":"small_airport"},{"iata":"YBO","name":"Bob Quinn Lake Airport","lat":56.966702,"lng":-130.25,"country":"CA","type":"small_airport"},{"iata":"TNS","name":"Tungsten (Cantung) Airport","lat":61.956901550293,"lng":-128.20300292969,"country":"CA","keywords":"BX5","type":"small_airport"},{"iata":"TUX","name":"Tumbler Ridge Airport","lat":55.025001525879,"lng":-120.93499755859,"country":"CA","keywords":"BX7","type":"small_airport"},{"iata":"YWM","name":"Williams Harbour Airport","lat":52.567377,"lng":-55.784883,"country":"CA","type":"small_airport"},{"iata":"YSO","name":"Postville Airport","lat":54.9105,"lng":-59.78507,"country":"CA","keywords":"CD4","type":"small_airport"},{"iata":"YBI","name":"Black Tickle Airport","lat":53.469836,"lng":-55.787501,"country":"CA","keywords":"CE4","type":"small_airport"},{"iata":"YHG","name":"Charlottetown Airport","lat":52.765774,"lng":-56.11237,"country":"CA","keywords":"CH4","type":"small_airport"},{"iata":"YFX","name":"St. Lewis (Fox Harbour) Airport","lat":52.372799,"lng":-55.673901,"country":"CA","keywords":"CK4","type":"small_airport"},{"iata":"YHA","name":"Port Hope Simpson Airport","lat":52.528099060058594,"lng":-56.28609848022461,"country":"CA","keywords":"CP4","type":"small_airport"},{"iata":"YRG","name":"Rigolet Airport","lat":54.1796989440918,"lng":-58.45750045776367,"country":"CA","keywords":"CZ2","type":"small_airport"},{"iata":"KGN","name":"Kasongo-Lunda Airport","lat":-6.468027,"lng":16.805012,"country":"CD","type":"small_airport"},{"iata":"DVK","name":"Diavik Airport","lat":64.5113983154,"lng":-110.289001465,"country":"CA","keywords":"DK2","type":"small_airport"},{"iata":"JOJ","name":"Doris Lake","lat":68.1252746582,"lng":-106.585281372,"country":"CA","type":"small_airport"},{"iata":"ZFW","name":"Fairview Airport","lat":56.081401825,"lng":-118.434997559,"country":"CA","keywords":"EB5","type":"small_airport"},{"iata":"YJP","name":"Jasper-Hinton Airport","lat":53.319199,"lng":-117.752998,"country":"CA","keywords":"EC4","type":"small_airport"},{"iata":"YLE","name":"Whatì Airport","lat":63.131699,"lng":-117.246002,"country":"CA","keywords":"EM3, Lac la Martre, Wha Ti","type":"small_airport"},{"iata":"YDC","name":"Drayton Valley Industrial Airport","lat":53.265800476074,"lng":-114.95999908447,"country":"CA","keywords":"ER3","type":"small_airport"},{"iata":"NML","name":"Fort McMurray / Mildred Lake Airport","lat":57.0555992126,"lng":-111.573997498,"country":"CA","keywords":"ER4","type":"small_airport"},{"iata":"CFM","name":"Conklin (Leismer) Airport","lat":55.695301,"lng":-111.278999,"country":"CA","keywords":"ET2","type":"small_airport"},{"iata":"KWD","name":"Kavadja Airport","lat":7.964938,"lng":23.526018,"country":"CF","keywords":"Kaouadja","type":"small_airport"},{"iata":"GSL","name":"Taltheilei Narrows Airport","lat":62.5980987549,"lng":-111.542999268,"country":"CA","keywords":"FA7","type":"small_airport"},{"iata":"XMP","name":"Macmillan Pass Airport","lat":63.181098938,"lng":-130.20199585,"country":"CA","keywords":"FC4","type":"small_airport"},{"iata":"DAS","name":"Great Bear Lake Airport","lat":66.703053,"lng":-119.716816,"country":"CA","keywords":"FF4","type":"small_airport"},{"iata":"YFI","name":"Fort Mackay / Firebag","lat":57.275833,"lng":-110.976666,"country":"CA","keywords":"CFG6, Wood Buffalo","type":"small_airport"},{"iata":"YOE","name":"Donnelly Airport","lat":55.7094,"lng":-117.094002,"country":"CA","keywords":"FM4","type":"small_airport"},{"iata":"TIL","name":"Cheadle Airport","lat":51.057498931885,"lng":-113.62400054932,"country":"CA","keywords":"FQ4, Inverlake","type":"small_airport"},{"iata":"OKG","name":"Okoyo Airport","lat":-1.4483300447464,"lng":15.073300361633,"country":"CG","type":"small_airport"},{"iata":"CGG","name":"Casiguran Airport","lat":16.1941,"lng":122.0651,"country":"PH","type":"small_airport"},{"iata":"GHK","name":"Gahcho Kue","lat":63.435198,"lng":-109.144812,"country":"CA","keywords":"De Beers Canada","type":"small_airport"},{"iata":"CHP","name":"Circle Hot Springs Airport","lat":65.485496521,"lng":-144.610992432,"country":"US","type":"small_airport"},{"iata":"LRQ","name":"Laurie River Airport","lat":56.2486000061,"lng":-101.304000854,"country":"CA","keywords":"JC8","type":"small_airport"},{"iata":"YDJ","name":"Hatchet Lake Airport","lat":58.662498474121,"lng":-103.53800201416,"country":"CA","keywords":"JL2","type":"small_airport"},{"iata":"YDU","name":"Kasba Lake Airport","lat":60.291900634766,"lng":-102.50199890137,"country":"CA","keywords":"JL8","type":"small_airport"},{"iata":"XCL","name":"Cluff Lake Airport","lat":58.3911018372,"lng":-109.51599884,"country":"CA","keywords":"JS3","type":"small_airport"},{"iata":"YKE","name":"Knee Lake Airport","lat":54.915298,"lng":-94.798103,"country":"CA","keywords":"JT3","type":"small_airport"},{"iata":"SUR","name":"Summer Beaver Airport","lat":52.70859909057617,"lng":-88.54190063476562,"country":"CA","keywords":"JV7","type":"small_airport"},{"iata":"CKD","name":"Crooked Creek Airport","lat":61.870315,"lng":-158.137636,"country":"US","type":"small_airport"},{"iata":"YTT","name":"Tisdale Airport","lat":52.836700439453,"lng":-104.06700134277,"country":"CA","keywords":"JY3","type":"small_airport"},{"iata":"YAX","name":"Wapekeka Airport","lat":53.84920120239258,"lng":-89.57939910888672,"country":"CA","keywords":"KB6","type":"small_airport"},{"iata":"WNN","name":"Wunnumin Lake Airport","lat":52.893902,"lng":-89.2892,"country":"CA","type":"small_airport"},{"iata":"YBS","name":"Opapimiskan Lake Airport","lat":52.6067008972,"lng":-90.3768997192,"country":"CA","keywords":"KM8, Musselwhite Airport","type":"small_airport"},{"iata":"YNO","name":"North Spirit Lake Airport","lat":52.4900016784668,"lng":-92.97109985351562,"country":"CA","keywords":"KQ3","type":"small_airport"},{"iata":"CKR","name":"Crane Island Airstrip","lat":48.5978,"lng":-122.9979,"country":"US","type":"small_airport"},{"iata":"CKU","name":"Cordova Municipal Airport","lat":60.5438995361,"lng":-145.727005005,"country":"US","type":"small_airport"},{"iata":"YDW","name":"North of Sixty Airport","lat":60.315719,"lng":-103.131324,"country":"CA","type":"small_airport"},{"iata":"CKX","name":"Chicken Airport","lat":64.066495,"lng":-141.951342,"country":"US","type":"small_airport"},{"iata":"CMT","name":"New Cametá Airport","lat":-2.2468,"lng":-49.56,"country":"BR","type":"small_airport"},{"iata":"CMZ","name":"Caia Airport","lat":-17.8331,"lng":35.3341,"country":"MZ","type":"small_airport"},{"iata":"ZKL","name":"Zigong Fengming Airport","lat":29.376484,"lng":104.625789,"country":"CN","keywords":"Fengming General Airport","type":"small_airport"},{"iata":"BZX","name":"Bazhong Enyang Airport","lat":31.73842,"lng":106.644872,"country":"CN","type":"medium_airport"},{"iata":"DFA","name":"Shangluo Airport","lat":33.708533,"lng":110.249284,"country":"CN","type":"small_airport"},{"iata":"HSC","name":"Shaoguan Danxia Airport","lat":24.9786,"lng":113.420998,"country":"CN","keywords":"Shaoguan Air Base, Shaoguan Guitou Airport","type":"medium_airport"},{"iata":"JGS","name":"Jinggangshan Airport","lat":26.856899,"lng":114.737,"country":"CN","keywords":"Tiahe Air Base, Ji'an Airport","type":"medium_airport"},{"iata":"HNG","name":"Hainanzhou Gonghe Airport","lat":36.3367,"lng":100.480003,"country":"CN","keywords":"Qabqa","type":"medium_airport"},{"iata":"JNH","name":"Jiaxing Nanhu Airport","lat":30.698056,"lng":120.663056,"country":"CN","type":"medium_airport"},{"iata":"DWS","name":"Morin Dawa Banner Airport","lat":48.38745,"lng":124.43127,"country":"CN","type":"small_airport"},{"iata":"LCT","name":"Shijiazhuang Luancheng Airport","lat":37.91305,"lng":114.59166,"country":"CN","type":"small_airport"},{"iata":"WHN","name":"Wuhan Hannan Municipal Airport","lat":30.25521,"lng":114.062805,"country":"CN","type":"medium_airport"},{"iata":"PFA","name":"Harbin Pingfang Airport","lat":45.59886,"lng":126.65808,"country":"CN","keywords":"Ping Fang Tien Air Base","type":"small_airport"},{"iata":"PNJ","name":"Penglai Shahekou Airport","lat":37.80473,"lng":120.80954,"country":"CN","type":"small_airport"},{"iata":"CBZ","name":"Binzhou Dagao General Aviation Airport","lat":37.61055,"lng":117.885699,"country":"CN","type":"small_airport"},{"iata":"DDR","name":"Shigatse Tingri Airport","lat":28.604567,"lng":86.798,"country":"CN","keywords":"Rikaze Dingri","type":"medium_airport"},{"iata":"HQL","name":"Tashikuergan Hongqilafu Airport","lat":37.661333,"lng":75.288877,"country":"CN","type":"medium_airport"},{"iata":"HEW","name":"Dongyang Hengdian General Airport","lat":29.122619,"lng":120.24289,"country":"CN","type":"small_airport"},{"iata":"JDE","name":"Jiande Qiandaohu General Airport","lat":29.360905,"lng":119.180829,"country":"CN","type":"medium_airport"},{"iata":"HLJ","name":"Zhaodong Beidahuang General Airport","lat":46.12779,"lng":125.77354,"country":"CN","type":"small_airport"},{"iata":"TYC","name":"Taiyuan Yaocheng Airport","lat":37.50312,"lng":112.424126,"country":"CN","type":"small_airport"},{"iata":"WRH","name":"Wuerhe Airport","lat":46.01761,"lng":85.657436,"country":"CN","keywords":"Orku Baikouquan, Urhu, Karamay","type":"small_airport"},{"iata":"JRJ","name":"Ganzhou Ruijin Airport","lat":25.960236,"lng":116.077016,"country":"CN","type":"small_airport"},{"iata":"APJ","name":"Ali Pulan Airport","lat":30.397898,"lng":81.13317,"country":"CN","type":"medium_airport"},{"iata":"ZFL","name":"Zhaosu Tianma Airport","lat":43.088477,"lng":81.223013,"country":"CN","type":"small_airport"},{"iata":"YEH","name":"Yinchuan Yueyahu Airport","lat":38.588095,"lng":106.539788,"country":"CN","type":"small_airport"},{"iata":"LCS","name":"Longchuan Guangsong Airport","lat":24.26652,"lng":97.9048,"country":"CN","type":"small_airport"},{"iata":"LFH","name":"Lanping Fenghua General Airport","lat":26.64518,"lng":99.54419,"country":"CN","keywords":"Feng Hua","type":"small_airport"},{"iata":"BZJ","name":"Bozhou Airport (under construction)","lat":33.560777,"lng":115.911859,"country":"CN","type":"small_airport"},{"iata":"BKV","name":"Bailing Airport","lat":41.656944,"lng":110.3125,"country":"CN","type":"small_airport"},{"iata":"HJB","name":"Hejing Bayinbuluke Airport","lat":42.976395,"lng":83.995543,"country":"CN","type":"small_airport"},{"iata":"OTQ","name":"Otog Front Banner Oljoq Airport","lat":38.1712,"lng":107.3905,"country":"CN","type":"small_airport"},{"iata":"JBK","name":"Qitai Jiangbulake Airport","lat":44.166086,"lng":89.55014,"country":"CN","type":"small_airport"},{"iata":"ZAT","name":"Zhaotong Zhaoyang Airport （Not fully opened)","lat":27.205843,"lng":103.691511,"country":"CN","type":"medium_airport"},{"iata":"LIJ","name":"Lishui Airport","lat":28.3727,"lng":119.839,"country":"CN","keywords":"ZSLR","type":"small_airport"},{"iata":"YHJ","name":"Nanchang Yaohu Airport","lat":28.700972,"lng":116.107694,"country":"CN","type":"small_airport"},{"iata":"OTO","name":"Otog Banner Wulan Airport","lat":39.03139,"lng":107.98889,"country":"CN","type":"small_airport"},{"iata":"NAY","name":"Beijing Nanyuan Airport","lat":39.782158,"lng":116.386299,"country":"CN","keywords":"Nanyuan Air Base, NAY, ZBNY","type":"small_airport"},{"iata":"BFY","name":"Bengbu Tenghu Airport","lat":33.166292,"lng":117.058344,"country":"CN","keywords":"蚌埠滕湖机场","type":"medium_airport"},{"iata":"XBE","name":"Bearskin Lake Airport","lat":53.965599060058594,"lng":-91.0271987915039,"country":"CA","keywords":"NE3","type":"small_airport"},{"iata":"YNP","name":"Natuashish Airport","lat":55.913898,"lng":-61.184399,"country":"CA","keywords":"NH2","type":"small_airport"},{"iata":"YPD","name":"Parry Sound Area Municipal Airport","lat":45.2575,"lng":-79.829697,"country":"CA","keywords":"NK4, Seguin","type":"small_airport"},{"iata":"XBR","name":"Brockville - Thousand Islands Regional Tackaberry Airport","lat":44.6394004822,"lng":-75.7502975464,"country":"CA","keywords":"NL3","type":"small_airport"},{"iata":"KIF","name":"Kingfisher Lake Airport","lat":53.01250076293945,"lng":-89.85530090332031,"country":"CA","keywords":"NM5","type":"small_airport"},{"iata":"LCR","name":"Virgilio Barco Vargas (La Chorrera) Airport","lat":-1.456361,"lng":-72.801086,"country":"CO","type":"small_airport"},{"iata":"YEB","name":"Bar River Airport","lat":46.421233,"lng":-84.096478,"country":"CA","keywords":"PF2","type":"small_airport"},{"iata":"CPI","name":"Cape Orford Airport","lat":-5.44833333333,"lng":152.081944444,"country":"PG","type":"small_airport"},{"iata":"KEW","name":"Keewaywin Airport","lat":52.9911,"lng":-92.836403,"country":"CA","type":"small_airport"},{"iata":"ACO","name":"Cóbano Airport","lat":9.693365,"lng":-85.091216,"country":"CR","type":"small_airport"},{"iata":"KFM","name":"Kirby Lake Airport","lat":55.355598,"lng":-110.637001,"country":"CA","type":"small_airport"},{"iata":"YSA","name":"Sable Island Airport.","lat":43.928235,"lng":-59.948986,"country":"CA","type":"small_airport"},{"iata":"YLS","name":"Lebel-sur-Quevillon Airport","lat":49.0303001404,"lng":-77.0171966553,"country":"CA","keywords":"SH4","type":"small_airport"},{"iata":"YNX","name":"Snap Lake Airport","lat":63.593601,"lng":-110.905998,"country":"CA","keywords":"CSK6","type":"small_airport"},{"iata":"SSQ","name":"La Sarre Airport","lat":48.917198181152,"lng":-79.178596496582,"country":"CA","keywords":"SR8","type":"small_airport"},{"iata":"YKU","name":"Chisasibi Airport","lat":53.805599212646484,"lng":-78.91690063476562,"country":"CA","keywords":"SU2","type":"small_airport"},{"iata":"ZTB","name":"Tête-à-la-Baleine Airport","lat":50.674400329589844,"lng":-59.38359832763672,"country":"CA","keywords":"TB6","type":"small_airport"},{"iata":"ZKG","name":"Kégashka Airport","lat":50.195801,"lng":-61.2658,"country":"CA","keywords":"Kegaska","type":"small_airport"},{"iata":"CTP","name":"Carutapera Airport","lat":-1.225365,"lng":-46.019057,"country":"BR","type":"small_airport"},{"iata":"YAU","name":"Donaldson Airport","lat":61.662201,"lng":-73.321404,"country":"CA","type":"small_airport"},{"iata":"ZGS","name":"La Romaine Airport","lat":50.259553,"lng":-60.674357,"country":"CA","keywords":"Gethsemani, La Romaine","type":"small_airport"},{"iata":"YFG","name":"Fontanges Airport","lat":54.553901672363,"lng":-71.173301696777,"country":"CA","keywords":"TU2","type":"small_airport"},{"iata":"ZLT","name":"La Tabatière Airport","lat":50.8307991027832,"lng":-58.97560119628906,"country":"CA","keywords":"TU5","type":"small_airport"},{"iata":"CUJ","name":"Culion Airport","lat":11.8553,"lng":119.9378,"country":"PH","keywords":"Patag Airstrip","type":"small_airport"},{"iata":"CVL","name":"Cape Vogel Airport","lat":-9.67,"lng":150.019722222,"country":"PG","type":"small_airport"},{"iata":"CXC","name":"Chitina Airport","lat":61.582901,"lng":-144.427002,"country":"US","type":"small_airport"},{"iata":"YAB","name":"Arctic Bay Airport","lat":73.006101,"lng":-85.04616,"country":"CA","keywords":"CJX7","type":"small_airport"},{"iata":"YAC","name":"Cat Lake Airport","lat":51.7272,"lng":-91.824402,"country":"CA","type":"small_airport"},{"iata":"YAR","name":"La Grande-3 Airport","lat":53.5717010498,"lng":-76.19640350339999,"country":"CA","keywords":"YAD","type":"small_airport"},{"iata":"YAG","name":"Fort Frances Municipal Airport","lat":48.655749,"lng":-93.44349,"country":"CA","type":"medium_airport"},{"iata":"YAH","name":"La Grande-4 Airport","lat":53.754699707,"lng":-73.6753005981,"country":"CA","keywords":"YAH","type":"medium_airport"},{"iata":"YAL","name":"Alert Bay Airport","lat":50.582199,"lng":-126.916,"country":"CA","type":"small_airport"},{"iata":"YAM","name":"Sault Ste Marie Airport","lat":46.483216,"lng":-84.508467,"country":"CA","type":"medium_airport"},{"iata":"XKS","name":"Kasabonika Airport","lat":53.52470016479492,"lng":-88.6427993774414,"country":"CA","keywords":"YAQ","type":"medium_airport"},{"iata":"YKG","name":"Kangirsuk Airport","lat":60.027199,"lng":-69.999199,"country":"CA","keywords":"YAS","type":"small_airport"},{"iata":"YAT","name":"Attawapiskat Airport","lat":52.927502,"lng":-82.4319,"country":"CA","type":"small_airport"},{"iata":"YAY","name":"St. Anthony Airport","lat":51.391909,"lng":-56.08321,"country":"CA","type":"medium_airport"},{"iata":"YAZ","name":"Tofino / Long Beach Airport","lat":49.079833,"lng":-125.775583,"country":"CA","type":"medium_airport"},{"iata":"YBA","name":"Banff Airport","lat":51.208222,"lng":-115.540624,"country":"CA","keywords":"YBA","type":"small_airport"},{"iata":"YBB","name":"Kugaaruk Airport","lat":68.535711,"lng":-89.805508,"country":"CA","keywords":"YBB, Pelly Bay Townsite Airport","type":"small_airport"},{"iata":"YBC","name":"Baie-Comeau Airport","lat":49.1325,"lng":-68.204399,"country":"CA","type":"medium_airport"},{"iata":"QBC","name":"Bella Coola Airport","lat":52.387501,"lng":-126.596001,"country":"CA","keywords":"YBD","type":"medium_airport"},{"iata":"YBE","name":"Uranium City Airport","lat":59.561401,"lng":-108.481003,"country":"CA","type":"small_airport"},{"iata":"YBY","name":"Bonnyville Airport","lat":54.304199,"lng":-110.744003,"country":"CA","keywords":"YBF","type":"medium_airport"},{"iata":"YBG","name":"Saguenay-Bagotville Airport","lat":48.330123,"lng":-70.992012,"country":"CA","keywords":"Bagotville Airport","type":"medium_airport"},{"iata":"YBK","name":"Baker Lake Airport","lat":64.29889678960001,"lng":-96.077796936,"country":"CA","type":"medium_airport"},{"iata":"YBL","name":"Campbell River Airport","lat":49.950802,"lng":-125.271004,"country":"CA","type":"medium_airport"},{"iata":"XTL","name":"Tadoule Lake Airport","lat":58.706308,"lng":-98.511057,"country":"CA","keywords":"YBQ","type":"small_airport"},{"iata":"YBR","name":"Brandon Municipal Airport","lat":49.91,"lng":-99.951897,"country":"CA","type":"medium_airport"},{"iata":"YBT","name":"Brochet Airport","lat":57.8894,"lng":-101.679001,"country":"CA","type":"small_airport"},{"iata":"YBV","name":"Berens River Airport","lat":52.358898,"lng":-97.018303,"country":"CA","type":"small_airport"},{"iata":"YBX","name":"Lourdes-de-Blanc-Sablon Airport","lat":51.4436,"lng":-57.185299,"country":"CA","type":"medium_airport"},{"iata":"YRF","name":"Cartwright Airport","lat":53.682501,"lng":-57.042303,"country":"CA","keywords":"YCA","type":"small_airport"},{"iata":"YCB","name":"Cambridge Bay Airport","lat":69.1081008911,"lng":-105.138000488,"country":"CA","type":"medium_airport"},{"iata":"YCC","name":"Cornwall Regional Airport","lat":45.092637,"lng":-74.567724,"country":"CA","type":"medium_airport"},{"iata":"YCD","name":"Nanaimo Airport","lat":49.05497,"lng":-123.869863,"country":"CA","type":"medium_airport"},{"iata":"YCE","name":"Centralia / James T. Field Memorial Aerodrome","lat":43.285599,"lng":-81.508301,"country":"CA","keywords":"RCAF Station Centralia, Huron Airpark","type":"medium_airport"},{"iata":"YCG","name":"Castlegar/West Kootenay Regional Airport","lat":49.296398,"lng":-117.632004,"country":"CA","type":"medium_airport"},{"iata":"YCH","name":"Miramichi Airport","lat":47.007801,"lng":-65.449203,"country":"CA","keywords":"CFB Chatham, RCAF Station Chatham","type":"medium_airport"},{"iata":"XCM","name":"Chatham Kent Airport","lat":42.3064002991,"lng":-82.0819015503,"country":"CA","keywords":"CNZ3","type":"small_airport"},{"iata":"YCL","name":"Charlo Airport","lat":47.990799,"lng":-66.330299,"country":"CA","type":"medium_airport"},{"iata":"YCN","name":"Cochrane Airport","lat":49.10559844970703,"lng":-81.01360321044922,"country":"CA","type":"medium_airport"},{"iata":"YCO","name":"Kugluktuk Airport","lat":67.816408,"lng":-115.14307,"country":"CA","keywords":"Copper Mine Airport","type":"small_airport"},{"iata":"YCQ","name":"Chetwynd Airport","lat":55.687198638916016,"lng":-121.62699890136719,"country":"CA","type":"medium_airport"},{"iata":"YCR","name":"Cross Lake (Charlie Sinclair Memorial) Airport","lat":54.609758,"lng":-97.762442,"country":"CA","type":"small_airport"},{"iata":"YCS","name":"Chesterfield Inlet Airport","lat":63.346901,"lng":-90.731102,"country":"CA","type":"small_airport"},{"iata":"YCT","name":"Coronation Airport","lat":52.0750007629,"lng":-111.444999695,"country":"CA","keywords":"YCT","type":"small_airport"},{"iata":"YCW","name":"Chilliwack Airport","lat":49.153157,"lng":-121.939309,"country":"CA","keywords":"YCW","type":"small_airport"},{"iata":"YCY","name":"Clyde River Airport","lat":70.486099,"lng":-68.516701,"country":"CA","type":"small_airport"},{"iata":"YCZ","name":"Fairmont Hot Springs Airport","lat":50.331052,"lng":-115.873739,"country":"CA","keywords":"YCZ","type":"small_airport"},{"iata":"YDA","name":"Dawson City Airport","lat":64.04309844970703,"lng":-139.1280059814453,"country":"CA","type":"medium_airport"},{"iata":"YDB","name":"Burwash Airport","lat":61.371101,"lng":-139.041,"country":"CA","type":"medium_airport"},{"iata":"YDF","name":"Deer Lake Airport","lat":49.208159,"lng":-57.396147,"country":"CA","type":"medium_airport"},{"iata":"YDL","name":"Dease Lake Airport","lat":58.422199,"lng":-130.031998,"country":"CA","keywords":"YDL","type":"small_airport"},{"iata":"XRR","name":"Ross River Airport","lat":61.9706001282,"lng":-132.42300415,"country":"CA","type":"medium_airport"},{"iata":"YDN","name":"Dauphin Barker Airport","lat":51.1008,"lng":-100.052002,"country":"CA","type":"medium_airport"},{"iata":"YDO","name":"Dolbeau-Saint-Felicien Airport","lat":48.7785,"lng":-72.375,"country":"CA","keywords":"Dolbeau St Methode","type":"medium_airport"},{"iata":"YDP","name":"Nain Airport","lat":56.550778,"lng":-61.682224,"country":"CA","type":"small_airport"},{"iata":"YDQ","name":"Dawson Creek Airport","lat":55.741245,"lng":-120.183263,"country":"CA","type":"medium_airport"},{"iata":"YEG","name":"Edmonton International Airport","lat":53.3097,"lng":-113.580002,"country":"CA","type":"large_airport"},{"iata":"YEK","name":"Arviat Airport","lat":61.0942,"lng":-94.070801,"country":"CA","type":"small_airport"},{"iata":"YEL","name":"Elliot Lake Municipal Airport","lat":46.351398468,"lng":-82.5614013672,"country":"CA","type":"medium_airport"},{"iata":"YEM","name":"Manitoulin East Municipal Airport","lat":45.842435,"lng":-81.857595,"country":"CA","type":"medium_airport"},{"iata":"YEN","name":"Estevan Airport","lat":49.2103004456,"lng":-102.966003418,"country":"CA","keywords":"YEN","type":"medium_airport"},{"iata":"YER","name":"Fort Severn Airport","lat":56.018902,"lng":-87.676102,"country":"CA","type":"small_airport"},{"iata":"YET","name":"Edson Airport","lat":53.578899383499994,"lng":-116.464996338,"country":"CA","type":"medium_airport"},{"iata":"YEU","name":"Eureka Airport","lat":79.9946975708,"lng":-85.814201355,"country":"CA","keywords":"YEU","type":"small_airport"},{"iata":"YEV","name":"Inuvik Mike Zubko Airport","lat":68.30419921880001,"lng":-133.483001709,"country":"CA","type":"medium_airport"},{"iata":"YEY","name":"Amos/Magny Airport","lat":48.563903,"lng":-78.249702,"country":"CA","type":"medium_airport"},{"iata":"YFA","name":"Fort Albany Airport","lat":52.203451,"lng":-81.695194,"country":"CA","type":"small_airport"},{"iata":"YFB","name":"Iqaluit Airport","lat":63.756402,"lng":-68.555801,"country":"CA","keywords":"Frobisher Bay Air Base","type":"medium_airport"},{"iata":"YFC","name":"Fredericton International Airport","lat":45.868697,"lng":-66.529891,"country":"CA","type":"medium_airport"},{"iata":"YFE","name":"Forestville Airport","lat":48.74610137939453,"lng":-69.09719848632812,"country":"CA","type":"medium_airport"},{"iata":"YFH","name":"Fort Hope Airport","lat":51.561901,"lng":-87.907799,"country":"CA","type":"small_airport"},{"iata":"YTM","name":"Mont-Tremblant International Airport","lat":46.409401,"lng":-74.779999,"country":"CA","keywords":"YFJ","type":"medium_airport"},{"iata":"YFO","name":"Flin Flon Airport","lat":54.678101,"lng":-101.681999,"country":"CA","type":"small_airport"},{"iata":"YFR","name":"Fort Resolution Airport","lat":61.1808013916,"lng":-113.690002441,"country":"CA","keywords":"YFR","type":"medium_airport"},{"iata":"YFS","name":"Fort Simpson Airport","lat":61.76020050048828,"lng":-121.23699951171875,"country":"CA","type":"medium_airport"},{"iata":"YMN","name":"Makkovik Airport","lat":55.077335,"lng":-59.187942,"country":"CA","keywords":"YFT","type":"small_airport"},{"iata":"YGB","name":"Texada Gillies Bay Airport","lat":49.694341,"lng":-124.518099,"country":"CA","type":"small_airport"},{"iata":"YGH","name":"Fort Good Hope Airport","lat":66.240658,"lng":-128.647757,"country":"CA","type":"small_airport"},{"iata":"YGK","name":"Kingston Norman Rogers Airport","lat":44.2253,"lng":-76.596901,"country":"CA","type":"medium_airport"},{"iata":"YGL","name":"La Grande Rivière Airport","lat":53.625301361083984,"lng":-77.7042007446289,"country":"CA","type":"medium_airport"},{"iata":"YGM","name":"Gimli Industrial Park Airport","lat":50.62810134887695,"lng":-97.04329681396484,"country":"CA","type":"medium_airport"},{"iata":"YGO","name":"Gods Lake Narrows Airport","lat":54.55768,"lng":-94.490061,"country":"CA","type":"small_airport"},{"iata":"YGP","name":"Michel-Pouliot Gaspé Airport","lat":48.774915,"lng":-64.481893,"country":"CA","type":"medium_airport"},{"iata":"YGQ","name":"Geraldton Greenstone Regional Airport","lat":49.77830123901367,"lng":-86.93939971923828,"country":"CA","type":"medium_airport"},{"iata":"YGR","name":"Îles-de-la-Madeleine Airport","lat":47.425242,"lng":-61.778612,"country":"CA","type":"medium_airport"},{"iata":"YGT","name":"Igloolik Airport","lat":69.3647,"lng":-81.816101,"country":"CA","type":"small_airport"},{"iata":"YGV","name":"Havre-Saint-Pierre Airport","lat":50.281898,"lng":-63.611401,"country":"CA","type":"medium_airport"},{"iata":"YGW","name":"Kuujjuarapik Airport","lat":55.281898498535156,"lng":-77.76529693603516,"country":"CA","type":"medium_airport"},{"iata":"YGX","name":"Gillam Airport","lat":56.35712,"lng":-94.711504,"country":"CA","type":"small_airport"},{"iata":"YGZ","name":"Grise Fiord Airport","lat":76.425823,"lng":-82.908583,"country":"CA","type":"small_airport"},{"iata":"YQC","name":"Quaqtaq Airport","lat":61.046398,"lng":-69.617798,"country":"CA","keywords":"YHA","type":"small_airport"},{"iata":"YHB","name":"Hudson Bay Airport","lat":52.8166999817,"lng":-102.310997009,"country":"CA","keywords":"YHB","type":"small_airport"},{"iata":"YHD","name":"Dryden Regional Airport","lat":49.831699,"lng":-92.744202,"country":"CA","type":"medium_airport"},{"iata":"YHE","name":"Hope Airport / FVRD Regional Airpark","lat":49.368865,"lng":-121.49495,"country":"CA","keywords":"YHE","type":"small_airport"},{"iata":"YHF","name":"Hearst René Fontaine Municipal Airport","lat":49.71419906616211,"lng":-83.68609619140625,"country":"CA","type":"medium_airport"},{"iata":"YNS","name":"Nemiscau Airport","lat":51.691101,"lng":-76.135597,"country":"CA","keywords":"YHH","type":"small_airport"},{"iata":"YHI","name":"Ulukhaktok Holman Airport","lat":70.762802,"lng":-117.806,"country":"CA","type":"small_airport"},{"iata":"YHK","name":"Gjoa Haven Airport","lat":68.635597,"lng":-95.849701,"country":"CA","type":"small_airport"},{"iata":"YHM","name":"John C. Munro Hamilton International Airport","lat":43.17348,"lng":-79.931185,"country":"CA","keywords":"Mount Hope Airport","type":"medium_airport"},{"iata":"YHN","name":"Hornepayne Municipal Airport","lat":49.19309997558594,"lng":-84.75890350341797,"country":"CA","type":"medium_airport"},{"iata":"YHO","name":"Hopedale Airport","lat":55.448757,"lng":-60.228124,"country":"CA","keywords":"CC5","type":"small_airport"},{"iata":"YHP","name":"Poplar Hill Airport","lat":52.1133,"lng":-94.2556,"country":"CA","type":"small_airport"},{"iata":"YHR","name":"Chevery Airport","lat":50.468322,"lng":-59.637823,"country":"CA","type":"small_airport"},{"iata":"YHT","name":"Haines Junction Airport","lat":60.7892,"lng":-137.546005,"country":"CA","type":"medium_airport"},{"iata":"YHU","name":"Montréal / Saint-Hubert Metropolitan Airport","lat":45.517502,"lng":-73.416901,"country":"CA","type":"medium_airport"},{"iata":"YHY","name":"Hay River / Merlyn Carter Airport","lat":60.8396987915,"lng":-115.782997131,"country":"CA","type":"medium_airport"},{"iata":"YHZ","name":"Halifax / Stanfield International Airport","lat":44.8807983398,"lng":-63.5085983276,"country":"CA","keywords":"Robert L. Stanfield International Airport","type":"large_airport"},{"iata":"YIB","name":"Atikokan Municipal Airport","lat":48.773899,"lng":-91.638603,"country":"CA","type":"medium_airport"},{"iata":"YDG","name":"Digby / Annapolis Regional Airport","lat":44.5458450365,"lng":-65.7854247093,"country":"CA","keywords":"YID","type":"medium_airport"},{"iata":"YIF","name":"St Augustin Airport","lat":51.2117,"lng":-58.658298,"country":"CA","keywords":"Pakuashipi Airport","type":"medium_airport"},{"iata":"YIK","name":"Ivujivik Airport","lat":62.417301,"lng":-77.925301,"country":"CA","type":"small_airport"},{"iata":"YIO","name":"Pond Inlet Airport","lat":72.689494,"lng":-77.968941,"country":"CA","type":"small_airport"},{"iata":"YIV","name":"Island Lake Airport","lat":53.857200622558594,"lng":-94.65360260009766,"country":"CA","type":"medium_airport"},{"iata":"YJA","name":"Jasper Airport","lat":52.996418,"lng":-118.060233,"country":"CA","type":"small_airport"},{"iata":"YJF","name":"Fort Liard Airport","lat":60.235801696799996,"lng":-123.46900177,"country":"CA","keywords":"YJF","type":"medium_airport"},{"iata":"YJN","name":"St Jean Airport","lat":45.29439926147461,"lng":-73.28109741210938,"country":"CA","type":"medium_airport"},{"iata":"YJT","name":"Stephenville Dymond International Airport","lat":48.54339,"lng":-58.552892,"country":"CA","keywords":"Ernest Harmon AFB","type":"medium_airport"},{"iata":"YKA","name":"Kamloops John Moose Fulton Field Regional Airport","lat":50.703038,"lng":-120.448641,"country":"CA","keywords":"Fulton","type":"medium_airport"},{"iata":"YKC","name":"Collins Bay Airport","lat":58.236099243199995,"lng":-103.678001404,"country":"CA","keywords":"YKC","type":"small_airport"},{"iata":"LAK","name":"Aklavik/Freddie Carmichael Airport","lat":68.223297,"lng":-135.00599,"country":"CA","keywords":"YKD","type":"small_airport"},{"iata":"YKF","name":"Region of Waterloo International Airport","lat":43.4608,"lng":-80.378601,"country":"CA","keywords":"Breslau, Kitchener, Waterloo, Cambridge, YKF","type":"medium_airport"},{"iata":"YWB","name":"Kangiqsujuaq (Wakeham Bay) Airport","lat":61.5886,"lng":-71.929398,"country":"CA","type":"small_airport"},{"iata":"YKJ","name":"Key Lake Airport","lat":57.256099700927734,"lng":-105.61799621582031,"country":"CA","type":"medium_airport"},{"iata":"YKL","name":"Schefferville Airport","lat":54.805301666259766,"lng":-66.8052978515625,"country":"CA","type":"medium_airport"},{"iata":"YKD","name":"Kincardine Municipal Airport","lat":44.201401,"lng":-81.606697,"country":"CA","keywords":"NS7, CNS7","type":"medium_airport"},{"iata":"AKV","name":"Akulivik Airport","lat":60.8186,"lng":-78.148598,"country":"CA","keywords":"YKO","type":"small_airport"},{"iata":"YOG","name":"Ogoki Post Airport","lat":51.6585998535,"lng":-85.9017028809,"country":"CA","keywords":"NT3","type":"small_airport"},{"iata":"YKQ","name":"Waskaganish Airport","lat":51.473301,"lng":-78.758301,"country":"CA","type":"small_airport"},{"iata":"YKX","name":"Kirkland Lake Airport","lat":48.21030044555664,"lng":-79.98139953613281,"country":"CA","type":"medium_airport"},{"iata":"YKY","name":"Kindersley Airport","lat":51.5175018311,"lng":-109.180999756,"country":"CA","keywords":"YKY","type":"medium_airport"},{"iata":"YPJ","name":"Aupaluk Airport","lat":59.2967,"lng":-69.599701,"country":"CA","keywords":"YLA","type":"small_airport"},{"iata":"YLB","name":"Lac La Biche Airport","lat":54.7703018188,"lng":-112.031997681,"country":"CA","keywords":"YLB","type":"small_airport"},{"iata":"YLC","name":"Kimmirut Airport","lat":62.848253,"lng":-69.877853,"country":"CA","keywords":"Lake Harbour","type":"small_airport"},{"iata":"YLD","name":"Chapleau Airport","lat":47.81999969482422,"lng":-83.3467025756836,"country":"CA","type":"medium_airport"},{"iata":"YLH","name":"Lansdowne House Airport","lat":52.195599,"lng":-87.934196,"country":"CA","type":"small_airport"},{"iata":"YLJ","name":"Meadow Lake Airport","lat":54.125301361083984,"lng":-108.52300262451172,"country":"CA","type":"medium_airport"},{"iata":"YSG","name":"Lutselk'e Airport","lat":62.417823,"lng":-110.682793,"country":"CA","keywords":"YLK, EL3, Snowdrift Airport","type":"small_airport"},{"iata":"YLL","name":"Lloydminster Airport","lat":53.3092,"lng":-110.072998,"country":"CA","type":"medium_airport"},{"iata":"YLQ","name":"La Tuque Airport","lat":47.4096984863,"lng":-72.7889022827,"country":"CA","keywords":"YLQ","type":"small_airport"},{"iata":"YLR","name":"Leaf Rapids Airport","lat":56.513301849365234,"lng":-99.98529815673828,"country":"CA","type":"medium_airport"},{"iata":"YLK","name":"Barrie-Lake Simcoe Regional Airport","lat":44.485056,"lng":-79.554663,"country":"CA","keywords":"NB9, CNB9, Oro Station","type":"medium_airport"},{"iata":"YLT","name":"Alert Airport","lat":82.517263,"lng":-62.283037,"country":"CA","keywords":"YLT","type":"medium_airport"},{"iata":"XGR","name":"Kangiqsualujjuaq (Georges River) Airport","lat":58.711399,"lng":-65.992798,"country":"CA","keywords":"YLU","type":"small_airport"},{"iata":"YLW","name":"Kelowna International Airport","lat":49.9561,"lng":-119.377998,"country":"CA","keywords":"Kelowna, Okanagan","type":"large_airport"},{"iata":"YMA","name":"Mayo Airport","lat":63.61640167236328,"lng":-135.8679962158203,"country":"CA","type":"medium_airport"},{"iata":"YME","name":"Matane Airport","lat":48.85689926147461,"lng":-67.45330047607422,"country":"CA","type":"medium_airport"},{"iata":"YMG","name":"Manitouwadge Airport","lat":49.083900451660156,"lng":-85.86060333251953,"country":"CA","type":"medium_airport"},{"iata":"YMH","name":"Mary's Harbour Airport","lat":52.302837,"lng":-55.847433,"country":"CA","type":"small_airport"},{"iata":"YMJ","name":"Moose Jaw Air Vice Marshal C. M. McEwen Airport","lat":50.330299377441406,"lng":-105.55899810791016,"country":"CA","keywords":"CFB Moose Jaw","type":"medium_airport"},{"iata":"YML","name":"Charlevoix Airport","lat":47.59749984741211,"lng":-70.2238998413086,"country":"CA","type":"medium_airport"},{"iata":"YMM","name":"Fort McMurray International Airport","lat":56.653301,"lng":-111.222,"country":"CA","type":"medium_airport"},{"iata":"YMO","name":"Moosonee Airport","lat":51.291099548339844,"lng":-80.60780334472656,"country":"CA","type":"medium_airport"},{"iata":"YMT","name":"Chapais Airport","lat":49.77190017700195,"lng":-74.5280990600586,"country":"CA","type":"medium_airport"},{"iata":"YUD","name":"Umiujaq Airport","lat":56.536098,"lng":-76.518303,"country":"CA","keywords":"YMU","type":"small_airport"},